[{"lat":44.80178,"lng":1.62011,"flags":["been"],"city":"Rocamadour","country":"France"},{"lat":43.097115,"lng":-0.046901,"flags":["been"],"city":"Lourdes","country":"France"},{"lat":42.52579,"lng":-1.5566,"flags":["been"],"city":"San Martin de Unx","country":"Spain"},{"lat":54.89455,"lng":23.90997,"flags":["been"],"city":"Kaunas","country":"Lithuania"},{"lat":-12.072676,"lng":-77.03925,"flags":["been"],"city":"Lima","country":"Peru"},{"lat":-13.181424,"lng":-72.53369,"flags":["been"],"city":"Machu Picchu","country":"Peru"},{"lat":21.968811,"lng":96.0812,"flags":["been"],"city":"Mandalay","country":"Myanmar"},{"lat":-16.3982,"lng":-71.53407,"flags":["been"],"city":"Arequipa","country":"Peru"},{"lat":39.0677,"lng":-3.61553,"flags":["been"],"city":"Daimiel","country":"Spain"},{"lat":-13.521886,"lng":-71.96856,"flags":["been"],"city":"Cusco","country":"Peru"},{"lat":-25.12077,"lng":-66.16266,"flags":["been"],"city":"Cachi","country":"Argentina"},{"lat":41.83306,"lng":-1.52894,"flags":["been"],"city":"Borja","country":"Spain"},{"lat":43.603947,"lng":1.44303,"flags":["been"],"city":"Toulouse","country":"France"},{"lat":43.38432,"lng":-4.39951,"flags":["been"],"city":"San Vicente de la Barquera","country":"Spain"},{"lat":44.89816,"lng":-0.0624,"flags":["been"],"city":"Saint-Genes-de-Castillon","country":"France"},{"lat":43.32024,"lng":-2.4231,"flags":["been"],"city":"Ondarroa","country":"Spain"},{"lat":42.564865,"lng":-2.922269,"flags":["been"],"city":"Cihuri","country":"Spain"},{"lat":42.5883,"lng":76.74271,"flags":["been"],"city":"Chok-Tal","country":"Kyrgyzstan"},{"lat":43.241943,"lng":-2.113456,"flags":["been"],"city":"Zizurkil","country":"Spain"},{"lat":43.154408,"lng":-4.623857,"flags":["been"],"city":"Potes","country":"Spain"},{"lat":19.888624,"lng":102.14175,"flags":["been"],"city":"Luang Prabang","country":"Laos"},{"lat":42.862865,"lng":-1.570942,"flags":["been"],"city":"Irotz","country":"Spain"},{"lat":42.36029,"lng":-4.92639,"flags":["been"],"city":"Moratinos","country":"Spain"},{"lat":68.23625,"lng":14.55747,"flags":["been"],"city":"Svolvaer","country":"Norway"},{"lat":70.74773,"lng":25.673021,"flags":["been"],"city":"Repvag","country":"Norway"},{"lat":43.39765,"lng":-3.58916,"flags":["been"],"city":"Hazas de Cesto","country":"Spain"},{"lat":42.11771,"lng":76.99329,"flags":["been"],"city":"Bokonbayevo","country":"Kyrgyzstan"},{"lat":43.352913,"lng":-3.204662,"flags":["been"],"city":"Castro Urdiales","country":"Spain"},{"lat":54.35607,"lng":18.646107,"flags":["been"],"city":"Gdansk","country":"Poland"},{"lat":56.94834,"lng":24.107779,"flags":["been"],"city":"Riga","country":"Latvia"},{"lat":57.1433,"lng":24.84383,"flags":["been"],"city":"Sigulda","country":"Latvia"},{"lat":40.381344,"lng":26.466673,"flags":["been"],"city":"Gallipoli","country":"Turkey"},{"lat":42.43804,"lng":-3.06547,"flags":["been"],"city":"Redecilla Del Camino","country":"Spain"},{"lat":29.43836,"lng":55.66812,"flags":["been"],"city":"Sirjan","country":"Iran"},{"lat":47.21812,"lng":-1.55306,"flags":["been"],"city":"Nantes","country":"France"},{"lat":28.052553,"lng":-16.718037,"flags":["been"],"city":"Los Cristianos","country":"Spain"},{"lat":43.22584,"lng":2.92203,"flags":["been"],"city":"Marcorignan","country":"France"},{"lat":41.78613,"lng":-1.6956,"flags":["been"],"city":"Alcala de Moncayo","country":"Spain"},{"lat":47.14096,"lng":9.520897,"flags":["been"],"city":"Vaduz","country":"Liechtenstein"},{"lat":42.33128,"lng":-2.85904,"flags":["been"],"city":"San Millan de la Cogolla","country":"Spain"},{"lat":39.98054,"lng":3.83935,"flags":["been"],"city":"Cala Santandria","country":"Spain"},{"lat":43.27332,"lng":-6.00242,"flags":["been"],"city":"Villanueva De Santo Adriano","country":"Spain"},{"lat":54.69059,"lng":25.26981,"flags":["been"],"city":"Vilnius","country":"Lithuania"},{"lat":50.076847,"lng":14.427817,"flags":["been"],"city":"Prague","country":"Czech Republic"},{"lat":49.18242,"lng":15.45544,"flags":["been"],"city":"Telc","country":"Czech Republic"},{"lat":43.13399,"lng":-2.07893,"flags":["been"],"city":"Tolosa","country":"Spain"},{"lat":44.82868,"lng":0.70411,"flags":["been"],"city":"Couze-et-Saint-Front","country":"France"},{"lat":40.58182,"lng":-4.12593,"flags":["been"],"city":"El Escorial","country":"Spain"},{"lat":42.40375,"lng":3.15071,"flags":["been"],"city":"Colera","country":"Spain"},{"lat":49.43679,"lng":20.32839,"flags":["been"],"city":"Czorsztyn","country":"Poland"},{"lat":41.07354,"lng":1.14211,"flags":["been"],"city":"Salou","country":"Spain"},{"lat":41.722366,"lng":2.931428,"flags":["been"],"city":"Tossa de Mar","country":"Spain"},{"lat":50.939663,"lng":6.959839,"flags":["been"],"city":"Cologne","country":"Germany"},{"lat":51.51661,"lng":7.4583,"flags":["been"],"city":"Dortmund","country":"Germany"},{"lat":42.37687,"lng":-3.50846,"flags":["been"],"city":"Atapuerca","country":"Spain"},{"lat":50.733418,"lng":7.100456,"flags":["been"],"city":"Bonn","country":"Germany"},{"lat":41.179825,"lng":9.381692,"flags":["been"],"city":"Palau","country":"Italy"},{"lat":41.934925,"lng":1.623545,"flags":["been"],"city":"Clariana de Cardener","country":"Spain"},{"lat":1.320217,"lng":103.88697,"flags":["been"],"city":"Geylang","country":"Singapore"},{"lat":52.4404,"lng":-2.83776,"flags":["been"],"city":"Craven Arms","country":"UK"},{"lat":-8.535406,"lng":115.40233,"flags":["been"],"city":"Klungkung","country":"Indonesia"},{"lat":56.238026,"lng":-4.619005,"flags":["been"],"city":"Loch Lomond and The Trossachs National Park","country":"UK"},{"lat":51.899853,"lng":0.194122,"flags":["been"],"city":"Stansted Mountfitchet","country":"UK"},{"lat":48.86896,"lng":2.783808,"flags":["been"],"city":"Disneyland Paris","country":"unknown"},{"lat":1.29016,"lng":103.852,"flags":["been"],"city":"Raffles Place","country":"Singapore"},{"lat":39.617188,"lng":-0.306077,"flags":["been"],"city":"Pucol","country":"Spain"},{"lat":41.88089,"lng":72.94201,"flags":["been"],"city":"Toktogul","country":"Kyrgyzstan"},{"lat":-17.551853,"lng":-149.55829,"flags":["been"],"city":"Papeete","country":"French Polynesia"},{"lat":43.28629,"lng":-2.175037,"flags":["been"],"city":"Zarautz","country":"Spain"},{"lat":51.894737,"lng":-2.081857,"flags":["been"],"city":"Cheltenham","country":"UK"},{"lat":51.223465,"lng":6.778337,"flags":["been"],"city":"Dusseldorf","country":"Germany"},{"lat":51.03319,"lng":6.98174,"flags":["been"],"city":"Leverkusen","country":"Germany"},{"lat":43.74552,"lng":7.40023,"flags":["been"],"city":"La Turbie","country":"France"},{"lat":41.602467,"lng":72.12202,"flags":["been"],"city":"Dzhangi-Dzhol","country":"Kyrgyzstan"},{"lat":42.54325,"lng":1.73377,"flags":["been"],"city":"Pas de la Casa","country":"Andorra"},{"lat":42.42563,"lng":3.16135,"flags":["been"],"city":"Portbou","country":"Spain"},{"lat":51.96149,"lng":7.622354,"flags":["been"],"city":"Muenster","country":"Germany"},{"lat":43.46082,"lng":-1.33295,"flags":["been"],"city":"Briscous","country":"France"},{"lat":51.196854,"lng":6.440438,"flags":["been"],"city":"Monchengladbach","country":"Germany"},{"lat":36.01276,"lng":14.337137,"flags":["been"],"city":"Comino","country":"Malta"},{"lat":36.04799,"lng":14.251328,"flags":["been"],"city":"Island of Gozo","country":"Malta"},{"lat":54.44321,"lng":18.562584,"flags":["been"],"city":"Sopot","country":"Poland"},{"lat":1.29017,"lng":103.852,"flags":["been"],"city":"Orchard Road","country":"Singapore"},{"lat":-22.116894,"lng":14.282556,"flags":["been"],"city":"Hentiesbaai","country":"Namibia"},{"lat":1.289073,"lng":103.85701,"flags":["been"],"city":"Marina Bay","country":"Singapore"},{"lat":42.55162,"lng":-2.27285,"flags":["been"],"city":"Torres del Rio","country":"Spain"},{"lat":1.307131,"lng":103.84984,"flags":["been"],"city":"Little India","country":"Singapore"},{"lat":48.802074,"lng":2.128208,"flags":["been"],"city":"Versailles","country":"France"},{"lat":3.021212,"lng":101.61456,"flags":["been"],"city":"Puchong","country":"Malaysia"},{"lat":42.96861,"lng":-1.417165,"flags":["been"],"city":"Bizkarreta-Gerendiain","country":"Spain"},{"lat":50.897747,"lng":-1.36055,"flags":["been"],"city":"Southampton","country":"UK"},{"lat":48.857037,"lng":2.349401,"flags":["been"],"city":"Paris","country":"France"},{"lat":39.971268,"lng":3.834043,"flags":["been"],"city":"Cala Blanca","country":"Spain"},{"lat":36.20276,"lng":-6.03926,"flags":["been"],"city":"Zahora","country":"Spain"},{"lat":51.679764,"lng":-1.284984,"flags":["been"],"city":"Abingdon","country":"UK"},{"lat":43.21323,"lng":2.353646,"flags":["been"],"city":"Carcassonne Center","country":"France"},{"lat":42.52384,"lng":3.0856,"flags":["been"],"city":"Collioure","country":"France"},{"lat":43.276936,"lng":-2.072594,"flags":["been"],"city":"Aginaga","country":"Spain"},{"lat":50.3608,"lng":7.59277,"flags":["been"],"city":"Koblenz","country":"Germany"},{"lat":35.840054,"lng":14.543023,"flags":["been"],"city":"Marsaxlokk","country":"Malta"},{"lat":1.29017,"lng":103.852,"flags":["been"],"city":"Suntec","country":"Singapore"},{"lat":43.13984,"lng":-1.60657,"flags":["been"],"city":"Oronoz","country":"Spain"},{"lat":1.300953,"lng":103.85624,"flags":["been"],"city":"Bugis","country":"Singapore"},{"lat":35.909527,"lng":14.425695,"flags":["been"],"city":"Mosta","country":"Malta"},{"lat":-18.977133,"lng":16.468649,"flags":["been"],"city":"Etosha National Park","country":"Namibia"},{"lat":35.88616,"lng":14.401739,"flags":["been"],"city":"Mdina","country":"Malta"},{"lat":50.26068,"lng":19.037397,"flags":["been"],"city":"Katowice","country":"Poland"},{"lat":44.82323,"lng":0.67041,"flags":["been"],"city":"Lanquais","country":"France"},{"lat":1.290113,"lng":103.84649,"flags":["been"],"city":"Singapore River","country":"Singapore"},{"lat":35.892944,"lng":14.438667,"flags":["been"],"city":"Island of Malta","country":"Malta"},{"lat":36.0328,"lng":14.2581,"flags":["been"],"city":"Xewkija","country":"Malta"},{"lat":62.09621,"lng":7.21151,"flags":["been"],"city":"Geiranger","country":"Norway"},{"lat":32.65086,"lng":51.68387,"flags":["been"],"city":"Isfahan","country":"Iran"},{"lat":25.274548,"lng":55.36086,"flags":["been"],"city":"Dubai","country":"United Arab Emirates"},{"lat":36.04343,"lng":14.246132,"flags":["been"],"city":"Victoria","country":"Malta"},{"lat":43.182987,"lng":3.003014,"flags":["been"],"city":"Narbonne","country":"France"},{"lat":41.76654,"lng":-2.478752,"flags":["been"],"city":"Soria","country":"Spain"},{"lat":42.387756,"lng":-5.14403,"flags":["been"],"city":"Bercianos del Real Camino","country":"Spain"},{"lat":43.125088,"lng":-0.212631,"flags":["been"],"city":"Lestelle Betharram","country":"France"},{"lat":46.5093,"lng":6.661343,"flags":["been"],"city":"Pully","country":"Switzerland"},{"lat":42.29314,"lng":-2.21945,"flags":["been"],"city":"Las Ruedas de Ocon","country":"Spain"},{"lat":43.33147,"lng":-1.75077,"flags":["been"],"city":"Vera de Bidasoa","country":"Spain"},{"lat":43.00072,"lng":-1.8013,"flags":["been"],"city":"Jauntsarats","country":"Spain"},{"lat":40.837036,"lng":8.397136,"flags":["been"],"city":"Porto Torres","country":"Italy"},{"lat":43.321,"lng":-1.89703,"flags":["been"],"city":"Lezo","country":"Spain"},{"lat":42.82646,"lng":-1.61527,"flags":["been"],"city":"Burlada","country":"Spain"},{"lat":-43.46552,"lng":170.01831,"flags":["been"],"city":"Fox Glacier","country":"New Zealand"},{"lat":42.65374,"lng":-2.04181,"flags":["been"],"city":"Ayegui","country":"Spain"},{"lat":69.06381,"lng":18.538076,"flags":["been"],"city":"Bardufoss","country":"Norway"},{"lat":50.036472,"lng":19.25247,"flags":["been"],"city":"Oswiecim","country":"Poland"},{"lat":43.33276,"lng":-3.04026,"flags":["been"],"city":"Santurtzi","country":"Spain"},{"lat":42.21393,"lng":-2.1644,"flags":["been"],"city":"Herce","country":"Spain"},{"lat":43.41528,"lng":-3.5765,"flags":["been"],"city":"Beranga","country":"Spain"},{"lat":35.912502,"lng":14.503581,"flags":["been"],"city":"Sliema","country":"Malta"},{"lat":35.87556,"lng":14.393606,"flags":["been"],"city":"Rabat","country":"Malta"},{"lat":35.898907,"lng":14.514553,"flags":["been"],"city":"Valletta","country":"Malta"},{"lat":-43.38766,"lng":170.18181,"flags":["been"],"city":"Franz Josef","country":"New Zealand"},{"lat":-36.849407,"lng":174.76103,"flags":["been"],"city":"Auckland Central","country":"New Zealand"},{"lat":-14.06392,"lng":-75.7303,"flags":["been"],"city":"Ica","country":"Peru"},{"lat":49.40969,"lng":20.30207,"flags":["been"],"city":"Niedzica","country":"Poland"},{"lat":45.44013,"lng":10.687946,"flags":["been"],"city":"Peschiera del Garda","country":"Italy"},{"lat":-50.329082,"lng":-73.22683,"flags":["been"],"city":"Los Glaciares National Park","country":"Argentina"},{"lat":-14.82549,"lng":-74.93997,"flags":["been"],"city":"Nazca","country":"Peru"},{"lat":43.214245,"lng":-2.41737,"flags":["been"],"city":"Elgoibar","country":"Spain"},{"lat":43.29631,"lng":-2.35189,"flags":["been"],"city":"Deba","country":"Spain"},{"lat":43.28021,"lng":-1.95075,"flags":["been"],"city":"Astigarraga","country":"Spain"},{"lat":40.22255,"lng":-5.75163,"flags":["been"],"city":"Jerte","country":"Spain"},{"lat":20.61034,"lng":96.94566,"flags":["been"],"city":"Magyizin Village","country":"Myanmar"},{"lat":42.75703,"lng":-0.82793,"flags":["been"],"city":"Anso","country":"Spain"},{"lat":50.107586,"lng":8.675079,"flags":["been"],"city":"Frankfurt","country":"Germany"},{"lat":53.55556,"lng":10.013171,"flags":["been"],"city":"Hamburg","country":"Germany"},{"lat":5.408902,"lng":100.37045,"flags":["been"],"city":"Butterworth","country":"Malaysia"},{"lat":46.216114,"lng":10.17198,"flags":["been"],"city":"Tirano","country":"Italy"},{"lat":29.59101,"lng":52.53056,"flags":["been"],"city":"Shiraz","country":"Iran"},{"lat":21.17264,"lng":94.86154,"flags":["been"],"city":"Bagan","country":"Myanmar"},{"lat":51.05563,"lng":3.72856,"flags":["been"],"city":"Ghent","country":"Belgium"},{"lat":-41.286087,"lng":174.77695,"flags":["been"],"city":"Wellington","country":"New Zealand"},{"lat":-43.532024,"lng":172.63718,"flags":["been"],"city":"Christchurch","country":"New Zealand"},{"lat":-38.136536,"lng":176.25145,"flags":["been"],"city":"Rotorua","country":"New Zealand"},{"lat":-38.689762,"lng":176.07594,"flags":["been"],"city":"Taupo","country":"New Zealand"},{"lat":41.87985,"lng":-1.7823,"flags":["been"],"city":"Los Fayos","country":"Spain"},{"lat":56.56539,"lng":-3.58544,"flags":["been"],"city":"Dunkeld","country":"UK"},{"lat":43.313198,"lng":-1.880313,"flags":["been"],"city":"Oiartzun","country":"Spain"},{"lat":43.12552,"lng":-2.42333,"flags":["been"],"city":"Bergara","country":"Spain"},{"lat":43.2647,"lng":-1.97968,"flags":["been"],"city":"Hernani","country":"Spain"},{"lat":43.45727,"lng":-3.48648,"flags":["been"],"city":"Argonos","country":"Spain"},{"lat":60.38918,"lng":5.331452,"flags":["been"],"city":"Bergen","country":"Norway"},{"lat":43.27334,"lng":-2.05391,"flags":["been"],"city":"Usurbil","country":"Spain"},{"lat":62.47149,"lng":6.17438,"flags":["been"],"city":"Alesund","country":"Norway"},{"lat":42.4189,"lng":-2.72504,"flags":["been"],"city":"Najera","country":"Spain"},{"lat":40.104733,"lng":-3.486543,"flags":["been"],"city":"Villaconejos","country":"Spain"},{"lat":42.85972,"lng":-0.92659,"flags":["been"],"city":"Isaba","country":"Spain"},{"lat":42.80907,"lng":-0.9552,"flags":["been"],"city":"Roncal","country":"Spain"},{"lat":51.20847,"lng":3.2245,"flags":["been"],"city":"Bruges","country":"Belgium"},{"lat":46.17227,"lng":9.38007,"flags":["been"],"city":"Sorico","country":"Italy"},{"lat":48.6505,"lng":-2.02328,"flags":["been"],"city":"Saint-Malo","country":"France"},{"lat":42.90818,"lng":-1.08657,"flags":["been"],"city":"Ochagavia","country":"Spain"},{"lat":43.29339,"lng":-2.266863,"flags":["been"],"city":"Zumaia","country":"Spain"},{"lat":4.26003,"lng":102.58922,"flags":["been"],"city":"Jerantut","country":"Malaysia"},{"lat":-40.35681,"lng":175.60957,"flags":["been"],"city":"Palmerston North","country":"New Zealand"},{"lat":41.12913,"lng":-8.61369,"flags":["been"],"city":"Vila Nova de Gaia","country":"Portugal"},{"lat":4.48919,"lng":101.39085,"flags":["been"],"city":"Brinchang","country":"Malaysia"},{"lat":4.41486,"lng":101.38515,"flags":["been"],"city":"Ringlet","country":"Malaysia"},{"lat":-45.03106,"lng":168.66235,"flags":["been"],"city":"Queenstown","country":"New Zealand"},{"lat":44.6308,"lng":-1.2012,"flags":["been"],"city":"Pyla-sur-Mer","country":"France"},{"lat":43.045685,"lng":-2.198989,"flags":["been"],"city":"Beasain","country":"Spain"},{"lat":42.98629,"lng":-2.569405,"flags":["been"],"city":"Leintz-Gatzaga","country":"Spain"},{"lat":40.49368,"lng":-3.880078,"flags":["been"],"city":"Las Rozas","country":"Spain"},{"lat":44.72264,"lng":1.61508,"flags":["been"],"city":"Carlucet","country":"France"},{"lat":-8.615731,"lng":115.10177,"flags":["been"],"city":"Beraban","country":"Indonesia"},{"lat":52.072178,"lng":-3.128783,"flags":["been"],"city":"Hay-on-Wye","country":"UK"},{"lat":41.05227,"lng":-0.13319,"flags":["been"],"city":"Alcaniz","country":"Spain"},{"lat":43.38886,"lng":-4.10857,"flags":["been"],"city":"Santillana del Mar","country":"Spain"},{"lat":39.3643,"lng":23.18608,"flags":["been"],"city":"Xorychti","country":"Greece"},{"lat":-44.672512,"lng":167.92879,"flags":["been"],"city":"Milford Sound","country":"New Zealand"},{"lat":42.363876,"lng":-4.952407,"flags":["been"],"city":"San Nicolas del Real Camino","country":"Spain"},{"lat":47.41315,"lng":0.984626,"flags":["been"],"city":"Amboise","country":"France"},{"lat":41.05574,"lng":8.952892,"flags":["been"],"city":"Costa Paradiso","country":"Italy"},{"lat":42.65004,"lng":-1.31184,"flags":["been"],"city":"Lumbier","country":"Spain"},{"lat":39.418392,"lng":23.159992,"flags":["been"],"city":"Agios Ioannis","country":"Greece"},{"lat":36.185802,"lng":-6.01044,"flags":["been"],"city":"Los Canos de Meca","country":"Spain"},{"lat":43.21658,"lng":-2.0253,"flags":["been"],"city":"Andoain","country":"Spain"},{"lat":38.73148,"lng":1.41687,"flags":["been"],"city":"La Savina","country":"Spain"},{"lat":38.0112,"lng":-3.37151,"flags":["been"],"city":"Ubeda","country":"Spain"},{"lat":38.706444,"lng":1.429594,"flags":["been"],"city":"Sant Francesc de Formentera","country":"Spain"},{"lat":40.59333,"lng":8.2062,"flags":["been"],"city":"Porto Conte","country":"Italy"},{"lat":37.140747,"lng":-1.851106,"flags":["been"],"city":"Mojacar","country":"Spain"},{"lat":51.915398,"lng":-2.578,"flags":["been"],"city":"Ross-on-Wye","country":"UK"},{"lat":47.33215,"lng":1.06534,"flags":["been"],"city":"Chenonceaux","country":"France"},{"lat":20.65966,"lng":96.93498,"flags":["want"],"city":"Nyaungshwe","country":"Myanmar"},{"lat":55.67502,"lng":12.580593,"flags":["been"],"city":"Copenhagen","country":"Denmark"},{"lat":-42.715797,"lng":170.96948,"flags":["been"],"city":"Hokitika","country":"New Zealand"},{"lat":48.88996,"lng":0.60852,"flags":["been"],"city":"Chambord","country":"France"},{"lat":-26.57907,"lng":18.13606,"flags":["been"],"city":"Keetmanshoop","country":"Namibia"},{"lat":39.22412,"lng":-3.77698,"flags":["been"],"city":"Fuente el Fresno","country":"Spain"},{"lat":-34.45451,"lng":-57.83755,"flags":["been"],"city":"Colonia del Sacramento","country":"Uruguay"},{"lat":37.778934,"lng":-122.41579,"flags":["been"],"city":"San Francisco","country":"USA"},{"lat":45.415466,"lng":11.942962,"flags":["been"],"city":"Noventa Padovana","country":"Italy"},{"lat":40.59345,"lng":-4.14251,"flags":["been"],"city":"San Lorenzo de El Escorial","country":"Spain"},{"lat":5.207117,"lng":103.20231,"flags":["been"],"city":"Marang","country":"Malaysia"},{"lat":42.74848,"lng":-1.72262,"flags":["been"],"city":"Zariquiegui","country":"Spain"},{"lat":5.21786,"lng":103.26198,"flags":["been"],"city":"Pulau Kapas","country":"Malaysia"},{"lat":40.32806,"lng":-3.76516,"flags":["been"],"city":"Leganes","country":"Spain"},{"lat":40.30488,"lng":-3.73109,"flags":["been"],"city":"Getafe","country":"Spain"},{"lat":31.185188,"lng":35.70469,"flags":["been"],"city":"Karak","country":"Jordan"},{"lat":5.907102,"lng":102.72213,"flags":["been"],"city":"Pulau Perhentian Kecil","country":"Malaysia"},{"lat":5.904459,"lng":102.75642,"flags":["been"],"city":"Pulau Perhentian Besar","country":"Malaysia"},{"lat":43.03138,"lng":-2.408,"flags":["been"],"city":"Onati","country":"Spain"},{"lat":64.28231,"lng":-20.361156,"flags":["been"],"city":"Geysir","country":"Iceland"},{"lat":43.05387,"lng":-2.1773,"flags":["been"],"city":"Ordizia","country":"Spain"},{"lat":52.00543,"lng":4.356236,"flags":["been"],"city":"Delft","country":"The Netherlands"},{"lat":68.14766,"lng":13.61884,"flags":["been"],"city":"Leknes","country":"Norway"},{"lat":39.25954,"lng":23.28745,"flags":["been"],"city":"Potistika","country":"Greece"},{"lat":43.18577,"lng":-2.26387,"flags":["been"],"city":"Azpeitia","country":"Spain"},{"lat":42.59317,"lng":-1.21603,"flags":["been"],"city":"Javier","country":"Spain"},{"lat":42.82187,"lng":75.30267,"flags":["been"],"city":"Tokmok","country":"Kyrgyzstan"},{"lat":42.75987,"lng":-1.63382,"flags":["been"],"city":"Noain","country":"Spain"},{"lat":42.57112,"lng":-1.28064,"flags":["been"],"city":"Sanguesa","country":"Spain"},{"lat":45.75762,"lng":22.90133,"flags":["been"],"city":"Hunedoara","country":"Romania"},{"lat":42.78816,"lng":-1.64595,"flags":["been"],"city":"Ventas de Cordovilla","country":"Spain"},{"lat":42.32817,"lng":-3.01398,"flags":["been"],"city":"Ezcaray","country":"Spain"},{"lat":4.71167,"lng":115.08515,"flags":["been"],"city":"Gadong","country":"Brunei Darussalam"},{"lat":42.62937,"lng":-2.10503,"flags":["been"],"city":"Villamayor de Monjardin","country":"Spain"},{"lat":32.86384,"lng":53.09066,"flags":["been"],"city":"Nain","country":"Iran"},{"lat":42.42445,"lng":-2.8017,"flags":["been"],"city":"Azofra","country":"Spain"},{"lat":65.695,"lng":-18.12084,"flags":["been"],"city":"Akureyri","country":"Iceland"},{"lat":43.79173,"lng":5.04071,"flags":["been"],"city":"Orgon","country":"France"},{"lat":51.749607,"lng":-3.376537,"flags":["been"],"city":"Merthyr Tydfil","country":"UK"},{"lat":41.6109,"lng":1.84568,"flags":["been"],"city":"Monistrol de Montserrat","country":"Spain"},{"lat":56.009773,"lng":-3.394634,"flags":["been"],"city":"North Queensferry","country":"UK"},{"lat":40.03611,"lng":-3.60433,"flags":["been"],"city":"Aranjuez","country":"Spain"},{"lat":42.474747,"lng":-5.355237,"flags":["been"],"city":"Reliegos","country":"Spain"},{"lat":40.35141,"lng":-3.82425,"flags":["been"],"city":"Alcorcon","country":"Spain"},{"lat":31.051537,"lng":-7.132974,"flags":["been"],"city":"Ait Ben Haddou","country":"Morocco"},{"lat":40.48066,"lng":-3.37344,"flags":["been"],"city":"Alcala De Henares","country":"Spain"},{"lat":51.62632,"lng":6.19844,"flags":["been"],"city":"Weeze","country":"Germany"},{"lat":42.141876,"lng":-0.40949,"flags":["been"],"city":"San Juan de la Pena","country":"Spain"},{"lat":38.8842,"lng":-3.70943,"flags":["been"],"city":"Almagro","country":"Spain"},{"lat":39.45827,"lng":-5.87663,"flags":["been"],"city":"Trujillo","country":"Spain"},{"lat":51.219032,"lng":4.409642,"flags":["been"],"city":"Antwerp","country":"Belgium"},{"lat":30.91938,"lng":-6.90848,"flags":["been"],"city":"Ouarzazate","country":"Morocco"},{"lat":39.680782,"lng":-0.278671,"flags":["been"],"city":"Sagunto","country":"Spain"},{"lat":68.35736,"lng":14.72327,"flags":["been"],"city":"Laupstad","country":"Norway"},{"lat":36.25391,"lng":-5.964932,"flags":["been"],"city":"Vejer de la Frontera","country":"Spain"},{"lat":44.86397,"lng":-0.0675,"flags":["been"],"city":"Saint Magne de Castillon","country":"France"},{"lat":44.77221,"lng":0.76605,"flags":["been"],"city":"Beaumont-du-Perigord","country":"France"},{"lat":48.13641,"lng":11.57753,"flags":["been"],"city":"Munich","country":"Germany"},{"lat":40.62443,"lng":14.371068,"flags":["been"],"city":"Sorrento","country":"Italy"},{"lat":64.25835,"lng":-15.2089,"flags":["been"],"city":"Hofn","country":"Iceland"},{"lat":40.841064,"lng":14.306837,"flags":["been"],"city":"Capri","country":"Italy"},{"lat":30.322731,"lng":35.471233,"flags":["been"],"city":"Petra - Wadi Musa","country":"Jordan"},{"lat":42.68936,"lng":-1.77137,"flags":["been"],"city":"Muruzabal","country":"Spain"},{"lat":40.682175,"lng":14.76798,"flags":["been"],"city":"Salerno","country":"Italy"},{"lat":51.88333,"lng":-3.399571,"flags":["been"],"city":"Brecon Beacons National Park","country":"UK"},{"lat":40.745995,"lng":14.499147,"flags":["been"],"city":"Pompeii","country":"Italy"},{"lat":64.00167,"lng":-22.55418,"flags":["been"],"city":"Keflavik","country":"Iceland"},{"lat":43.08051,"lng":-1.91499,"flags":["been"],"city":"Leiza","country":"Spain"},{"lat":66.04469,"lng":-17.3418,"flags":["been"],"city":"Husavik","country":"Iceland"},{"lat":51.920525,"lng":4.480866,"flags":["been"],"city":"Rotterdam","country":"The Netherlands"},{"lat":39.51853,"lng":-2.99843,"flags":["been"],"city":"El Toboso","country":"Spain"},{"lat":42.80289,"lng":-1.62278,"flags":["been"],"city":"Mutilva Baja","country":"Spain"},{"lat":40.840416,"lng":14.252355,"flags":["been"],"city":"Naples","country":"Italy"},{"lat":-7.923147,"lng":112.99826,"flags":["been"],"city":"Putus","country":"Indonesia"},{"lat":-44.697247,"lng":169.13551,"flags":["been"],"city":"Wanaka","country":"New Zealand"},{"lat":51.16948,"lng":-1.77721,"flags":["been"],"city":"Amesbury","country":"UK"},{"lat":42.49398,"lng":-1.21615,"flags":["been"],"city":"Sos del Rey Catolico","country":"Spain"},{"lat":30.3325,"lng":-5.83753,"flags":["been"],"city":"Zagora","country":"Morocco"},{"lat":-24.185904,"lng":-65.29948,"flags":["been"],"city":"San Salvador de Jujuy","country":"Argentina"},{"lat":48.149662,"lng":17.108503,"flags":["been"],"city":"Bratislava","country":"Slovakia"},{"lat":63.4197,"lng":-19.00831,"flags":["been"],"city":"Vik","country":"Iceland"},{"lat":42.19537,"lng":-1.63435,"flags":["been"],"city":"Valtierra","country":"Spain"},{"lat":41.902363,"lng":12.454423,"flags":["been"],"city":"Vatican City","country":"Vatican City"},{"lat":64.148,"lng":-21.933647,"flags":["been"],"city":"Reykjavik","country":"Iceland"},{"lat":46.37501,"lng":10.03375,"flags":["been"],"city":"Alp Gruem","country":"Switzerland"},{"lat":41.893623,"lng":12.495978,"flags":["been"],"city":"Rome","country":"Italy"},{"lat":50.849632,"lng":4.351959,"flags":["been"],"city":"Brussels","country":"Belgium"},{"lat":42.05905,"lng":-1.85976,"flags":["been"],"city":"Fitero","country":"Spain"},{"lat":38.60111,"lng":-0.047557,"flags":["been"],"city":"Altea","country":"Spain"},{"lat":71.09974,"lng":25.387236,"flags":["been"],"city":"Gjesvaer","country":"Norway"},{"lat":-13.156311,"lng":-72.52298,"flags":["been"],"city":"Aguas Calientes","country":"Peru"},{"lat":40.54739,"lng":-3.62535,"flags":["been"],"city":"San Sebastian de los Reyes","country":"Spain"},{"lat":42.3884,"lng":-2.53024,"flags":["been"],"city":"Entrena","country":"Spain"},{"lat":39.361378,"lng":22.95001,"flags":["been"],"city":"Volos","country":"Greece"},{"lat":43.34709,"lng":-5.06634,"flags":["been"],"city":"Corao","country":"Spain"},{"lat":46.6186,"lng":7.05738,"flags":["been"],"city":"Bulle","country":"Switzerland"},{"lat":8.039255,"lng":80.75468,"flags":["been"],"city":"Habarana","country":"Sri Lanka"},{"lat":42.27006,"lng":-4.44805,"flags":["been"],"city":"Poblacion de Campos","country":"Spain"},{"lat":-6.28834,"lng":105.84035,"flags":["been"],"city":"Carita","country":"Indonesia"},{"lat":42.48133,"lng":3.12934,"flags":["been"],"city":"Banyuls-sur-mer","country":"France"},{"lat":50.632607,"lng":5.579737,"flags":["been"],"city":"Liege","country":"Belgium"},{"lat":53.083763,"lng":8.819797,"flags":["been"],"city":"Bremen","country":"Germany"},{"lat":20.66003,"lng":105.08284,"flags":["been"],"city":"Mai Chau","country":"Vietnam"},{"lat":52.51959,"lng":13.397209,"flags":["been"],"city":"Berlin","country":"Germany"},{"lat":43.30246,"lng":-4.81592,"flags":["been"],"city":"Arenas de Cabrales","country":"Spain"},{"lat":5.974077,"lng":116.00006,"flags":["been"],"city":"Pulau Manukan","country":"Malaysia"},{"lat":43.285652,"lng":-2.231305,"flags":["been"],"city":"Errenteria","country":"Spain"},{"lat":42.58982,"lng":-2.79569,"flags":["been"],"city":"Labastida","country":"Spain"},{"lat":43.39055,"lng":-4.2922,"flags":["been"],"city":"Comillas","country":"Spain"},{"lat":41.21264,"lng":-1.78903,"flags":["been"],"city":"Nuevalos","country":"Spain"},{"lat":55.955498,"lng":-3.191557,"flags":["been"],"city":"Edinburgh","country":"UK"},{"lat":39.887474,"lng":4.262103,"flags":["been"],"city":"Mahon","country":"Spain"},{"lat":42.54256,"lng":-2.83448,"flags":["been"],"city":"Ollauri","country":"Spain"},{"lat":-16.4944,"lng":-151.7364,"flags":["been"],"city":"Bora Bora","country":"French Polynesia"},{"lat":43.38036,"lng":-2.98329,"flags":["been"],"city":"Sopelana","country":"Spain"},{"lat":45.75343,"lng":21.22333,"flags":["been"],"city":"Timisoara","country":"Romania"},{"lat":43.42664,"lng":-2.81285,"flags":["been"],"city":"Bakio","country":"Spain"},{"lat":-34.58881,"lng":-58.39562,"flags":["been"],"city":"Buenos Aires","country":"Argentina"},{"lat":43.29603,"lng":-3.51049,"flags":["been"],"city":"Ason","country":"Spain"},{"lat":31.06028,"lng":-6.554964,"flags":["been"],"city":"Skoura Ahl El Oust","country":"Morocco"},{"lat":40.713238,"lng":-74.00584,"flags":["been"],"city":"New York City","country":"USA"},{"lat":13.363545,"lng":103.86083,"flags":["been"],"city":"Siem Reap","country":"Cambodia"},{"lat":42.61189,"lng":-2.098719,"flags":["been"],"city":"Luquin","country":"Spain"},{"lat":36.74185,"lng":-5.16637,"flags":["been"],"city":"Ronda","country":"Spain"},{"lat":57.19863,"lng":-3.827106,"flags":["been"],"city":"Aviemore","country":"UK"},{"lat":41.35224,"lng":-1.63945,"flags":["been"],"city":"Calatayud","country":"Spain"},{"lat":55.859673,"lng":-4.257223,"flags":["been"],"city":"Glasgow","country":"UK"},{"lat":35.864994,"lng":14.513198,"flags":["been"],"city":"Tarxien","country":"Malta"},{"lat":40.576508,"lng":-5.180358,"flags":["been"],"city":"Villanueva del Campillo","country":"Spain"},{"lat":28.922745,"lng":-13.66812,"flags":["been"],"city":"Puerto Del Carmen","country":"Spain"},{"lat":51.97673,"lng":-3.08633,"flags":["been"],"city":"Capel-Y-Ffin","country":"UK"},{"lat":56.334522,"lng":-2.800393,"flags":["been"],"city":"St. Andrews","country":"UK"},{"lat":-7.87122,"lng":112.52749,"flags":["been"],"city":"Batu","country":"Indonesia"},{"lat":52.468,"lng":-2.9549,"flags":["been"],"city":"Lydbury North","country":"UK"},{"lat":42.26232,"lng":-2.76461,"flags":["been"],"city":"Anguiano","country":"Spain"},{"lat":42.06193,"lng":-1.60295,"flags":["been"],"city":"Tudela","country":"Spain"},{"lat":56.81976,"lng":-5.106221,"flags":["been"],"city":"Fort William","country":"UK"},{"lat":45.439087,"lng":12.323647,"flags":["been"],"city":"Venice","country":"Italy"},{"lat":45.43419,"lng":10.9977,"flags":["been"],"city":"Verona","country":"Italy"},{"lat":57.477955,"lng":-4.234628,"flags":["been"],"city":"Inverness","country":"UK"},{"lat":34.073524,"lng":-118.40208,"flags":["been"],"city":"Beverly Hills","country":"USA"},{"lat":43.26929,"lng":-1.5409,"flags":["been"],"city":"Zugarramurdi","country":"Spain"},{"lat":42.56057,"lng":-0.785406,"flags":["been"],"city":"Puente la Reina de Jaca","country":"Spain"},{"lat":42.739227,"lng":-0.750487,"flags":["been"],"city":"Hecho","country":"Spain"},{"lat":5.975282,"lng":116.00536,"flags":["been"],"city":"Manukan Island","country":"Malaysia"},{"lat":56.24252,"lng":-4.20992,"flags":["been"],"city":"Callander","country":"UK"},{"lat":37.508392,"lng":15.080838,"flags":["been"],"city":"Catania","country":"Italy"},{"lat":39.31348,"lng":-0.317872,"flags":["been"],"city":"El Palmar","country":"Spain"},{"lat":40.021725,"lng":4.164665,"flags":["been"],"city":"Son Parc","country":"Spain"},{"lat":40.558666,"lng":8.31863,"flags":["been"],"city":"Alghero","country":"Italy"},{"lat":42.54048,"lng":-2.96276,"flags":["been"],"city":"Cuzcurrita de Rio Tiron","country":"Spain"},{"lat":43.53902,"lng":-1.46092,"flags":["been"],"city":"Tarnos","country":"France"},{"lat":39.40336,"lng":-3.12434,"flags":["been"],"city":"Campo de Criptana","country":"Spain"},{"lat":42.32447,"lng":-2.51494,"flags":["been"],"city":"Islallana","country":"Spain"},{"lat":4.565273,"lng":101.41334,"flags":["been"],"city":"Kampung Raja","country":"Malaysia"},{"lat":42.17623,"lng":-2.70388,"flags":["been"],"city":"Ortigosa De Cameros","country":"Spain"},{"lat":-22.56088,"lng":17.065756,"flags":["been"],"city":"Windhoek","country":"Namibia"},{"lat":48.24086,"lng":14.517126,"flags":["been"],"city":"Mauthausen","country":"Austria"},{"lat":43.004974,"lng":-1.896243,"flags":["been"],"city":"Lecumberri","country":"Spain"},{"lat":43.76069,"lng":4.95002,"flags":["been"],"city":"Eygalieres","country":"France"},{"lat":-7.836405,"lng":112.52813,"flags":["been"],"city":"Punten","country":"Indonesia"},{"lat":6.351074,"lng":99.75824,"flags":["been"],"city":"Langkawi","country":"Malaysia"},{"lat":35.90594,"lng":14.490704,"flags":["been"],"city":"Il Gzira","country":"Malta"},{"lat":51.86971,"lng":-2.61882,"flags":["been"],"city":"Goodrich","country":"UK"},{"lat":45.71931,"lng":25.77098,"flags":["been"],"city":"Prejmer","country":"Romania"},{"lat":46.13658,"lng":24.52069,"flags":["been"],"city":"Biertan","country":"Romania"},{"lat":43.78836,"lng":7.61542,"flags":["been"],"city":"Ventimiglia","country":"Italy"},{"lat":42.342983,"lng":-3.626459,"flags":["been"],"city":"Castanares","country":"Spain"},{"lat":42.545418,"lng":-5.458877,"flags":["been"],"city":"Villarente","country":"Spain"},{"lat":36.78193,"lng":-2.24198,"flags":["been"],"city":"El Cabo de Gata","country":"Spain"},{"lat":43.270264,"lng":-2.03161,"flags":["been"],"city":"Zubieta","country":"Spain"},{"lat":6.968783,"lng":80.76983,"flags":["been"],"city":"Nuwara Eliya","country":"Sri Lanka"},{"lat":42.660427,"lng":-1.992081,"flags":["been"],"city":"Villatuerta","country":"Spain"},{"lat":45.98462,"lng":9.25869,"flags":["been"],"city":"Bellagio","country":"Italy"},{"lat":45.811356,"lng":9.083135,"flags":["been"],"city":"Como","country":"Italy"},{"lat":42.34041,"lng":-3.834579,"flags":["been"],"city":"Rabe de las Calzadas","country":"Spain"},{"lat":45.69678,"lng":9.677634,"flags":["been"],"city":"Bergamo","country":"Italy"},{"lat":42.49249,"lng":78.39499,"flags":["been"],"city":"Karakol","country":"Kyrgyzstan"},{"lat":-3.21748,"lng":40.1191,"flags":["been"],"city":"Malindi","country":"Kenya"},{"lat":0.598272,"lng":37.49973,"flags":["been"],"city":"Samburu National Reserve","country":"Kenya"},{"lat":42.35904,"lng":-3.559129,"flags":["been"],"city":"Cardenuela Riopico","country":"Spain"},{"lat":2.239568,"lng":102.25589,"flags":["been"],"city":"Batu Berendam","country":"Malaysia"},{"lat":43.41907,"lng":-4.755537,"flags":["been"],"city":"Llanes","country":"Spain"},{"lat":42.79287,"lng":-1.69275,"flags":["been"],"city":"Zizur Mayor","country":"Spain"},{"lat":43.39022,"lng":-5.18527,"flags":["been"],"city":"Arriondas","country":"Spain"},{"lat":43.560387,"lng":-6.143907,"flags":["been"],"city":"Cudillero","country":"Spain"},{"lat":42.89591,"lng":-2.16969,"flags":["been"],"city":"Altsasu-Alsasua","country":"Spain"},{"lat":43.38481,"lng":-1.6669,"flags":["been"],"city":"Ciboure","country":"France"},{"lat":40.592316,"lng":-74.14055,"flags":["been"],"city":"Staten Island","country":"USA"},{"lat":43.44527,"lng":-3.45379,"flags":["been"],"city":"Santona","country":"Spain"},{"lat":41.971756,"lng":3.209854,"flags":["been"],"city":"Platja de Sa Riera","country":"Spain"},{"lat":56.461514,"lng":-2.970447,"flags":["been"],"city":"Dundee","country":"UK"},{"lat":45.464787,"lng":9.189092,"flags":["been"],"city":"Milan","country":"Italy"},{"lat":57.33586,"lng":-3.989966,"flags":["been"],"city":"Tomatin","country":"UK"},{"lat":57.52064,"lng":-4.00815,"flags":["been"],"city":"Croy","country":"UK"},{"lat":40.61891,"lng":-0.09779,"flags":["been"],"city":"Morella","country":"Spain"},{"lat":43.30858,"lng":-5.054538,"flags":["been"],"city":"Covadonga","country":"Spain"},{"lat":45.488167,"lng":10.608929,"flags":["been"],"city":"Sirmione","country":"Italy"},{"lat":35.94927,"lng":14.406424,"flags":["been"],"city":"St. Paul's Bay","country":"Malta"},{"lat":35.950043,"lng":14.416931,"flags":["been"],"city":"Bugibba","country":"Malta"},{"lat":42.67676,"lng":-1.79036,"flags":["been"],"city":"Obanos","country":"Spain"},{"lat":43.32634,"lng":-4.58503,"flags":["been"],"city":"Panes","country":"Spain"},{"lat":36.088688,"lng":-5.774572,"flags":["been"],"city":"Bolonia","country":"Spain"},{"lat":63.9339,"lng":-21.00011,"flags":["been"],"city":"Selfoss","country":"Iceland"},{"lat":22.365316,"lng":31.622372,"flags":["been"],"city":"Abu Simbel","country":"Egypt"},{"lat":19.87111,"lng":102.23631,"flags":["been"],"city":"Ban Xieng Lom","country":"Laos"},{"lat":-3.254656,"lng":40.13202,"flags":["been"],"city":"Malindi Marine National Park","country":"Kenya"},{"lat":29.849852,"lng":31.216324,"flags":["been"],"city":"Saqqara","country":"Egypt"},{"lat":38.9067,"lng":1.420624,"flags":["been"],"city":"Ibiza Town","country":"Spain"},{"lat":22.425085,"lng":-83.7006,"flags":["been"],"city":"Pinar del Rio","country":"Cuba"},{"lat":49.84075,"lng":24.02862,"flags":["been"],"city":"Lviv","country":"Ukraine"},{"lat":48.81053,"lng":14.31991,"flags":["been"],"city":"Cesky Krumlov","country":"Czech Republic"},{"lat":42.31061,"lng":-2.20253,"flags":["been"],"city":"Aldealobos","country":"Spain"},{"lat":49.15147,"lng":15.01008,"flags":["been"],"city":"Jindrichuv Hradec","country":"Czech Republic"},{"lat":21.9,"lng":96.05,"flags":["been"],"city":"Amarapura","country":"Myanmar"},{"lat":40.66585,"lng":-3.76997,"flags":["been"],"city":"Colmenar Viejo","country":"Spain"},{"lat":24.469482,"lng":54.365982,"flags":["been"],"city":"Abu Dhabi","country":"United Arab Emirates"},{"lat":39.408047,"lng":23.169987,"flags":["been"],"city":"Papa Nero","country":"Greece"},{"lat":3.242071,"lng":101.66702,"flags":["been"],"city":"Batu Caves","country":"Malaysia"},{"lat":43.493824,"lng":-3.568992,"flags":["been"],"city":"Isla","country":"Spain"},{"lat":40.65931,"lng":8.67901,"flags":["been"],"city":"Codrongianos","country":"Italy"},{"lat":22.05,"lng":96.0167,"flags":["been"],"city":"Mingun","country":"Myanmar"},{"lat":45.52219,"lng":25.37063,"flags":["been"],"city":"Bran","country":"Romania"},{"lat":21.203299,"lng":94.91738,"flags":["been"],"city":"Nyaung U","country":"Myanmar"},{"lat":39.17103,"lng":23.22139,"flags":["been"],"city":"Milina","country":"Greece"},{"lat":42.55364,"lng":-2.266855,"flags":["been"],"city":"Sansol","country":"Spain"},{"lat":1.285801,"lng":103.85111,"flags":["been"],"city":"Singapore","country":"Singapore"},{"lat":6.767926,"lng":80.959694,"flags":["been"],"city":"Haputale","country":"Sri Lanka"},{"lat":42.820965,"lng":74.37011,"flags":["been"],"city":"Kara-Sakal","country":"Kyrgyzstan"},{"lat":38.6979,"lng":-9.42146,"flags":["been"],"city":"Cascais","country":"Portugal"},{"lat":38.69874,"lng":-9.19289,"flags":["been"],"city":"Belem","country":"Portugal"},{"lat":39.23333,"lng":23.21667,"flags":["been"],"city":"Argalasti","country":"Greece"},{"lat":38.37689,"lng":22.383501,"flags":["been"],"city":"Galaxidi","country":"Greece"},{"lat":42.54113,"lng":-2.78436,"flags":["been"],"city":"Briones","country":"Spain"},{"lat":43.72287,"lng":7.39777,"flags":["been"],"city":"Cap d'Ail","country":"France"},{"lat":40.914284,"lng":8.709764,"flags":["been"],"city":"Castelsardo","country":"Italy"},{"lat":38.71211,"lng":-9.138085,"flags":["been"],"city":"Lisbon","country":"Portugal"},{"lat":38.70436,"lng":-9.398214,"flags":["been"],"city":"Estoril","country":"Portugal"},{"lat":3.552758,"lng":98.123886,"flags":["been"],"city":"Bukit Lawang","country":"Indonesia"},{"lat":41.962368,"lng":-1.691513,"flags":["been"],"city":"Monteagudo","country":"Spain"},{"lat":42.50689,"lng":1.525626,"flags":["been"],"city":"Andorra la Vella","country":"Andorra"},{"lat":42.55383,"lng":1.59044,"flags":["been"],"city":"Meritxell","country":"Andorra"},{"lat":51.50204,"lng":7.61906,"flags":["been"],"city":"Holzwickede","country":"Germany"},{"lat":38.8008,"lng":-9.3819,"flags":["been"],"city":"Sintra","country":"Portugal"},{"lat":42.709023,"lng":-1.760146,"flags":["been"],"city":"Uterga","country":"Spain"},{"lat":37.346485,"lng":23.465681,"flags":["been"],"city":"Hydra Town","country":"Greece"},{"lat":37.21154,"lng":50.00129,"flags":["been"],"city":"Lahijan","country":"Iran"},{"lat":43.351086,"lng":-5.125215,"flags":["been"],"city":"Cangas de Onis","country":"Spain"},{"lat":42.51649,"lng":-2.88094,"flags":["been"],"city":"Zarraton","country":"Spain"},{"lat":33.98785,"lng":51.43768,"flags":["been"],"city":"Kashan","country":"Iran"},{"lat":-15.842083,"lng":-70.020424,"flags":["been"],"city":"Puno","country":"Peru"},{"lat":34.65,"lng":50.8833,"flags":["been"],"city":"Qom","country":"Iran"},{"lat":-12.6,"lng":-69.1833,"flags":["been"],"city":"Puerto Maldonado","country":"Peru"},{"lat":-44.611515,"lng":169.25554,"flags":["been"],"city":"Lake Hawea","country":"New Zealand"},{"lat":41.29731,"lng":-3.74873,"flags":["been"],"city":"Sepulveda","country":"Spain"},{"lat":43.39901,"lng":3.69617,"flags":["been"],"city":"Sete","country":"France"},{"lat":-15.770614,"lng":-69.68371,"flags":["been"],"city":"Taquile Island","country":"Peru"},{"lat":25.2931,"lng":32.5528,"flags":["been"],"city":"Isna","country":"Egypt"},{"lat":42.962666,"lng":-1.436998,"flags":["been"],"city":"Lintzoain","country":"Spain"},{"lat":43.74483,"lng":4.7944,"flags":["been"],"city":"Les Baux de Provence","country":"France"},{"lat":43.33344,"lng":-1.74374,"flags":["been"],"city":"Biriatou","country":"France"},{"lat":3.156205,"lng":101.75031,"flags":["been"],"city":"Ampang","country":"Malaysia"},{"lat":36.582497,"lng":-6.218617,"flags":["been"],"city":"Valdelagrana","country":"Spain"},{"lat":37.47191,"lng":49.46677,"flags":["been"],"city":"Bandar-e Anzali","country":"Iran"},{"lat":51.94363,"lng":-3.035624,"flags":["been"],"city":"Llanthony","country":"UK"},{"lat":4.38195,"lng":102.40177,"flags":["been"],"city":"Kuala Tahan","country":"Malaysia"},{"lat":37.59616,"lng":48.55406,"flags":["been"],"city":"Masuleh","country":"Iran"},{"lat":39.70444,"lng":21.62694,"flags":["been"],"city":"Kalambaka","country":"Greece"},{"lat":5.388071,"lng":100.29352,"flags":["been"],"city":"Penang Island","country":"Malaysia"},{"lat":65.56116,"lng":-17.03666,"flags":["been"],"city":"Lake Myvatn","country":"Iceland"},{"lat":41.14946,"lng":-8.61031,"flags":["been"],"city":"Porto","country":"Portugal"},{"lat":64.65941,"lng":-14.28645,"flags":["been"],"city":"Djupivogur","country":"Iceland"},{"lat":65.263214,"lng":-14.398977,"flags":["been"],"city":"Egilsstadir","country":"Iceland"},{"lat":43.27588,"lng":-1.5081,"flags":["been"],"city":"Leorlaz","country":"Spain"},{"lat":56.11838,"lng":-3.939976,"flags":["been"],"city":"Stirling","country":"UK"},{"lat":-21.97157,"lng":16.89778,"flags":["been"],"city":"Okahandja","country":"Namibia"},{"lat":40.409576,"lng":-1.439755,"flags":["been"],"city":"Albarracin","country":"Spain"},{"lat":3.060724,"lng":101.7638,"flags":["been"],"city":"Cheras","country":"Malaysia"},{"lat":51.93984,"lng":-3.25867,"flags":["been"],"city":"Llangorse","country":"UK"},{"lat":45.79174,"lng":24.14759,"flags":["been"],"city":"Sibiu","country":"Romania"},{"lat":45.64233,"lng":25.58853,"flags":["been"],"city":"Brasov","country":"Romania"},{"lat":33.586506,"lng":51.589886,"flags":["been"],"city":"Abyaneh","country":"Iran"},{"lat":-26.66403,"lng":16.25914,"flags":["been"],"city":"Aus","country":"Namibia"},{"lat":30.19316,"lng":35.72505,"flags":["been"],"city":"Ma'in","country":"Jordan"},{"lat":35.987747,"lng":14.328918,"flags":["been"],"city":"Cirkewwa","country":"Malta"},{"lat":46.0212,"lng":9.23876,"flags":["been"],"city":"Menaggio","country":"Italy"},{"lat":5.94481,"lng":80.45984,"flags":["been"],"city":"Mirissa","country":"Sri Lanka"},{"lat":-16.51205,"lng":-151.74994,"flags":["been"],"city":"Vaitape","country":"French Polynesia"},{"lat":51.249023,"lng":22.563223,"flags":["been"],"city":"Lublin","country":"Poland"},{"lat":5.943527,"lng":80.54582,"flags":["been"],"city":"Matara","country":"Sri Lanka"},{"lat":35.767906,"lng":10.827587,"flags":["been"],"city":"Monastir","country":"Tunisia"},{"lat":50.72055,"lng":23.252432,"flags":["been"],"city":"Zamosc","country":"Poland"},{"lat":36.403393,"lng":10.616969,"flags":["been"],"city":"Hammamet","country":"Tunisia"},{"lat":-8.506847,"lng":115.26246,"flags":["been"],"city":"Ubud","country":"Indonesia"},{"lat":-23.70267,"lng":133.88133,"flags":["been"],"city":"Alice Springs","country":"Australia"},{"lat":-24.257996,"lng":131.5625,"flags":["been"],"city":"Kings Canyon","country":"Australia"},{"lat":51.322906,"lng":21.950893,"flags":["been"],"city":"Kazimierz Dolny","country":"Poland"},{"lat":-33.870037,"lng":151.20955,"flags":["been"],"city":"Sydney","country":"Australia"},{"lat":40.44096,"lng":-3.81471,"flags":["been"],"city":"Pozuelo de Alarcon","country":"Spain"},{"lat":46.68988,"lng":7.67485,"flags":["been"],"city":"Spiez","country":"Switzerland"},{"lat":59.91173,"lng":10.750844,"flags":["been"],"city":"Oslo","country":"Norway"},{"lat":51.10825,"lng":17.02691,"flags":["been"],"city":"Wroclaw","country":"Poland"},{"lat":68.43642,"lng":17.397905,"flags":["been"],"city":"Narvik","country":"Norway"},{"lat":69.66126,"lng":18.95027,"flags":["been"],"city":"Tromso","country":"Norway"},{"lat":41.674,"lng":2.789929,"flags":["been"],"city":"Blanes","country":"Spain"},{"lat":-1.283211,"lng":36.814068,"flags":["been"],"city":"Nairobi","country":"Kenya"},{"lat":-7.285509,"lng":112.73446,"flags":["been"],"city":"Surabaya","country":"Indonesia"},{"lat":40.35206,"lng":-1.85232,"flags":["been"],"city":"Tragacete","country":"Spain"},{"lat":45.59132,"lng":25.46359,"flags":["been"],"city":"Rasnov","country":"Romania"},{"lat":-1.42818,"lng":34.95986,"flags":["been"],"city":"Maasai Mara National Reserve","country":"Kenya"},{"lat":30.01076,"lng":31.21381,"flags":["been"],"city":"Giza","country":"Egypt"},{"lat":24.09343,"lng":32.90704,"flags":["been"],"city":"Aswan","country":"Egypt"},{"lat":25.70234,"lng":32.64935,"flags":["been"],"city":"Luxor","country":"Egypt"},{"lat":35.895657,"lng":10.597587,"flags":["been"],"city":"Port El Kantaoui","country":"Tunisia"},{"lat":-7.96188,"lng":112.63357,"flags":["been"],"city":"Malang","country":"Indonesia"},{"lat":40.15864,"lng":-2.03703,"flags":["been"],"city":"Valdecabras","country":"Spain"},{"lat":33.876472,"lng":7.879722,"flags":["been"],"city":"Nefta","country":"Tunisia"},{"lat":30.04998,"lng":31.2486,"flags":["been"],"city":"Cairo","country":"Egypt"},{"lat":-13.37774,"lng":-72.06122,"flags":["been"],"city":"Chinchero","country":"Peru"},{"lat":44.837467,"lng":0.333864,"flags":["been"],"city":"Gardonne","country":"France"},{"lat":42.57074,"lng":-2.71131,"flags":["been"],"city":"Abalos","country":"Spain"},{"lat":48.583153,"lng":7.7636,"flags":["been"],"city":"Strasbourg","country":"France"},{"lat":37.337658,"lng":23.439705,"flags":["been"],"city":"Hydra","country":"Greece"},{"lat":43.31335,"lng":-3.57908,"flags":["been"],"city":"Matienzo","country":"Spain"},{"lat":48.08019,"lng":7.36469,"flags":["been"],"city":"Colmar","country":"France"},{"lat":52.40019,"lng":16.927551,"flags":["been"],"city":"Poznan","country":"Poland"},{"lat":39.98185,"lng":4.011269,"flags":["been"],"city":"Ferreries","country":"Spain"},{"lat":42.9158,"lng":-2.62885,"flags":["been"],"city":"Amarita","country":"Spain"},{"lat":38.344032,"lng":-0.484558,"flags":["been"],"city":"Alicante","country":"Spain"},{"lat":42.1665,"lng":-2.64995,"flags":["been"],"city":"Villanueva de Cameros","country":"Spain"},{"lat":44.841103,"lng":-0.580674,"flags":["been"],"city":"Bordeaux","country":"France"},{"lat":43.49288,"lng":-1.47628,"flags":["been"],"city":"Bayonne","country":"France"},{"lat":42.58733,"lng":-1.76359,"flags":["been"],"city":"Artajona","country":"Spain"},{"lat":43.3377,"lng":-5.99395,"flags":["been"],"city":"Trubia","country":"Spain"},{"lat":44.851097,"lng":0.484545,"flags":["been"],"city":"Bergerac City","country":"France"},{"lat":-41.28883,"lng":174.00539,"flags":["been"],"city":"Picton","country":"New Zealand"},{"lat":42.47807,"lng":-2.64338,"flags":["been"],"city":"Cenicero","country":"Spain"},{"lat":43.48213,"lng":-1.565064,"flags":["been"],"city":"Biarritz","country":"France"},{"lat":6.541563,"lng":99.29439,"flags":["been"],"city":"Ko Adang","country":"Thailand"},{"lat":46.5985,"lng":7.90711,"flags":["been"],"city":"Lauterbrunnen","country":"Switzerland"},{"lat":21.881413,"lng":95.96615,"flags":["been"],"city":"Sagaing","country":"Myanmar"},{"lat":43.38773,"lng":-1.66088,"flags":["been"],"city":"Saint-Jean-de-Luz","country":"France"},{"lat":-19.178865,"lng":15.918631,"flags":["been"],"city":"Okaukuejo","country":"Namibia"},{"lat":43.29644,"lng":-0.374395,"flags":["been"],"city":"Pau","country":"France"},{"lat":41.13269,"lng":-3.58237,"flags":["been"],"city":"Somosierra","country":"Spain"},{"lat":35.890305,"lng":14.504284,"flags":["been"],"city":"Floriana","country":"Malta"},{"lat":35.859398,"lng":14.442628,"flags":["been"],"city":"Siggiewi","country":"Malta"},{"lat":42.21253,"lng":-2.23675,"flags":["been"],"city":"Arnedillo","country":"Spain"},{"lat":43.107346,"lng":-2.133385,"flags":["been"],"city":"Lasarte","country":"Spain"},{"lat":39.4,"lng":23.16667,"flags":["been"],"city":"Mouresi","country":"Greece"},{"lat":42.59857,"lng":-5.567143,"flags":["been"],"city":"Leon","country":"Spain"},{"lat":40.46572,"lng":-5.32633,"flags":["been"],"city":"Piedrahita","country":"Spain"},{"lat":40.96427,"lng":-5.66385,"flags":["been"],"city":"Salamanca","country":"Spain"},{"lat":38.75544,"lng":-9.44578,"flags":["been"],"city":"Malveira da Serra","country":"Portugal"},{"lat":42.34127,"lng":-3.69992,"flags":["been"],"city":"Burgos","country":"Spain"},{"lat":46.36917,"lng":14.113181,"flags":["been"],"city":"Bled","country":"Slovenia"},{"lat":44.03485,"lng":10.139333,"flags":["been"],"city":"Massa","country":"Italy"},{"lat":4.528854,"lng":101.1317,"flags":["been"],"city":"Kampung Kepayang","country":"Malaysia"},{"lat":42.78398,"lng":-2.11996,"flags":["been"],"city":"Baquedano","country":"Spain"},{"lat":38.09656,"lng":-3.77114,"flags":["been"],"city":"Bailen","country":"Spain"},{"lat":43.17849,"lng":-0.26182,"flags":["been"],"city":"Nay","country":"France"},{"lat":38.644638,"lng":34.8304,"flags":["been"],"city":"Goreme","country":"Turkey"},{"lat":41.385597,"lng":2.169576,"flags":["been"],"city":"Barcelona","country":"Spain"},{"lat":40.94848,"lng":-4.11648,"flags":["been"],"city":"Segovia","country":"Spain"},{"lat":42.80312,"lng":-1.67934,"flags":["been"],"city":"Baranain","country":"Spain"},{"lat":43.791763,"lng":4.827271,"flags":["been"],"city":"Saint-Remy-de-Provence","country":"France"},{"lat":41.98081,"lng":2.81874,"flags":["been"],"city":"Girona","country":"Spain"},{"lat":51.40168,"lng":21.151571,"flags":["been"],"city":"Radom","country":"Poland"},{"lat":44.76969,"lng":1.50384,"flags":["been"],"city":"Reilhaguet","country":"France"},{"lat":52.37,"lng":4.89,"flags":["been"],"city":"Amsterdam","country":"The Netherlands"},{"lat":47.068523,"lng":15.439469,"flags":["been"],"city":"Graz","country":"Austria"},{"lat":53.015327,"lng":18.605698,"flags":["been"],"city":"Torun","country":"Poland"},{"lat":52.229263,"lng":21.01181,"flags":["been"],"city":"Warsaw","country":"Poland"},{"lat":43.01809,"lng":-2.526,"flags":["been"],"city":"Eskoriatza","country":"Spain"},{"lat":-25.51356,"lng":-54.56604,"flags":["been"],"city":"Foz do Iguacu","country":"Brazil"},{"lat":42.78821,"lng":-1.67543,"flags":["been"],"city":"Cizur Menor","country":"Spain"},{"lat":5.971037,"lng":80.69566,"flags":["been"],"city":"Dikwella","country":"Sri Lanka"},{"lat":-7.75622,"lng":113.22253,"flags":["been"],"city":"Probolinggo","country":"Indonesia"},{"lat":34.054928,"lng":-5.524454,"flags":["been"],"city":"Moulay Idriss","country":"Morocco"},{"lat":47.56222,"lng":13.6494,"flags":["been"],"city":"Hallstatt","country":"Austria"},{"lat":5.449866,"lng":100.21595,"flags":["been"],"city":"Teluk Bahang","country":"Malaysia"},{"lat":41.110733,"lng":1.145365,"flags":["been"],"city":"Vila Seca","country":"Spain"},{"lat":52.49376,"lng":5.073597,"flags":["been"],"city":"Volendam","country":"The Netherlands"},{"lat":37.919964,"lng":29.111616,"flags":["been"],"city":"Pamukkale","country":"Turkey"},{"lat":41.76819,"lng":-1.12672,"flags":["been"],"city":"Alagon","country":"Spain"},{"lat":52.456963,"lng":5.104273,"flags":["been"],"city":"Marken","country":"The Netherlands"},{"lat":42.90866,"lng":-2.41339,"flags":["been"],"city":"Narvaja","country":"Spain"},{"lat":43.461765,"lng":-5.057759,"flags":["been"],"city":"Ribadesella","country":"Spain"},{"lat":42.71955,"lng":-1.0032,"flags":["been"],"city":"Burgui","country":"Spain"},{"lat":47.49346,"lng":19.0507,"flags":["been"],"city":"Budapest","country":"Hungary"},{"lat":43.36235,"lng":-1.69989,"flags":["been"],"city":"Urrugne","country":"France"},{"lat":47.264565,"lng":11.39441,"flags":["been"],"city":"Innsbruck","country":"Austria"},{"lat":47.80067,"lng":13.04337,"flags":["been"],"city":"Salzburg","country":"Austria"},{"lat":22.28331,"lng":114.15874,"flags":["been"],"city":"Hong Kong","country":"China"},{"lat":46.62056,"lng":14.31069,"flags":["been"],"city":"Klagenfurt","country":"Austria"},{"lat":42.42225,"lng":-5.21919,"flags":["been"],"city":"El Burgo Ranero","country":"Spain"},{"lat":42.47964,"lng":-1.65183,"flags":["been"],"city":"Olite","country":"Spain"},{"lat":38.792492,"lng":0.164595,"flags":["been"],"city":"Javea","country":"Spain"},{"lat":38.84118,"lng":0.106244,"flags":["been"],"city":"Denia","country":"Spain"},{"lat":42.08356,"lng":-1.79647,"flags":["been"],"city":"Cintruenigo","country":"Spain"},{"lat":57.1451,"lng":-4.68065,"flags":["been"],"city":"Fort Augustus","country":"UK"},{"lat":43.4391,"lng":-1.591,"flags":["been"],"city":"Bidart","country":"France"},{"lat":46.056934,"lng":14.505641,"flags":["been"],"city":"Ljubljana","country":"Slovenia"},{"lat":48.208862,"lng":16.372383,"flags":["been"],"city":"Vienna","country":"Austria"},{"lat":28.612072,"lng":77.22978,"flags":["been"],"city":"New Delhi","country":"India"},{"lat":42.02381,"lng":-3.75416,"flags":["been"],"city":"Lerma","country":"Spain"},{"lat":26.9143,"lng":75.79276,"flags":["been"],"city":"Jaipur","country":"India"},{"lat":36.167194,"lng":-5.343071,"flags":["been"],"city":"La Linea de la Concepcion","country":"Spain"},{"lat":42.32938,"lng":-4.80372,"flags":["been"],"city":"Calzadilla de la Cueza","country":"Spain"},{"lat":49.80393,"lng":24.90422,"flags":["been"],"city":"Zolochiv","country":"Ukraine"},{"lat":-6.202333,"lng":106.84238,"flags":["been"],"city":"Jakarta","country":"Indonesia"},{"lat":45.765614,"lng":10.811021,"flags":["been"],"city":"Malcesine","country":"Italy"},{"lat":69.96721,"lng":23.26848,"flags":["been"],"city":"Alta","country":"Norway"},{"lat":42.430973,"lng":78.22065,"flags":["been"],"city":"Zhetyoguz","country":"Kyrgyzstan"},{"lat":49.94108,"lng":24.98948,"flags":["been"],"city":"Pidhirtsi","country":"Ukraine"},{"lat":41.699566,"lng":2.84383,"flags":["been"],"city":"Lloret de Mar","country":"Spain"},{"lat":67.946266,"lng":13.133575,"flags":["been"],"city":"Hamnoy","country":"Norway"},{"lat":42.89633,"lng":-1.5434,"flags":["been"],"city":"Akerreta","country":"Spain"},{"lat":35.77975,"lng":-5.80315,"flags":["been"],"city":"Tangier","country":"Morocco"},{"lat":44.81408,"lng":1.15156,"flags":["been"],"city":"Castelnaud-la-Chapelle","country":"France"},{"lat":43.18,"lng":-2.48853,"flags":["been"],"city":"Eibar","country":"Spain"},{"lat":42.838593,"lng":-1.565773,"flags":["been"],"city":"Alzuza","country":"Spain"},{"lat":43.70725,"lng":7.330667,"flags":["been"],"city":"Beaulieu-sur-Mer","country":"France"},{"lat":42.858974,"lng":-2.681857,"flags":["been"],"city":"Vitoria-Gasteiz","country":"Spain"},{"lat":31.95181,"lng":35.94042,"flags":["been"],"city":"Amman","country":"Jordan"},{"lat":43.361713,"lng":-5.844878,"flags":["been"],"city":"Oviedo","country":"Spain"},{"lat":42.42711,"lng":-3.09954,"flags":["been"],"city":"Viloria de Rioja","country":"Spain"},{"lat":43.690647,"lng":4.634936,"flags":["been"],"city":"Arles","country":"France"},{"lat":51.741657,"lng":-1.246963,"flags":["been"],"city":"Oxford","country":"UK"},{"lat":43.540924,"lng":-5.663839,"flags":["been"],"city":"Gijon","country":"Spain"},{"lat":52.36971,"lng":-2.716336,"flags":["been"],"city":"Ludlow","country":"UK"},{"lat":43.325775,"lng":-1.923769,"flags":["been"],"city":"Pasajes","country":"Spain"},{"lat":7.821868,"lng":98.29668,"flags":["been"],"city":"Kata Beach","country":"Thailand"},{"lat":52.71009,"lng":-2.75208,"flags":["been"],"city":"Shrewsbury","country":"UK"},{"lat":43.317516,"lng":-1.975921,"flags":["been","fave"],"city":"San Sebastian - Donostia","country":"Spain"},{"lat":43.262074,"lng":-2.931721,"flags":["been"],"city":"Bilbao","country":"Spain"},{"lat":43.947704,"lng":4.806896,"flags":["been"],"city":"Avignon","country":"France"},{"lat":51.384003,"lng":-2.361771,"flags":["been"],"city":"Bath","country":"UK"},{"lat":43.34175,"lng":-1.75654,"flags":["been"],"city":"Behobie","country":"France"},{"lat":39.016834,"lng":1.463359,"flags":["been"],"city":"Ibiza","country":"Spain"},{"lat":44.89007,"lng":-0.15473,"flags":["been"],"city":"Saint-Emilion","country":"France"},{"lat":-20.46119,"lng":16.65117,"flags":["been"],"city":"Otjiwarongo","country":"Namibia"},{"lat":42.426292,"lng":-2.419336,"flags":["been"],"city":"Villamediana de Iregua","country":"Spain"},{"lat":43.40943,"lng":-2.70037,"flags":["been"],"city":"Mundaka","country":"Spain"},{"lat":-42.10813,"lng":171.33643,"flags":["been"],"city":"Punakaiki","country":"New Zealand"},{"lat":43.1766,"lng":-2.312551,"flags":["been"],"city":"Azcoita","country":"Spain"},{"lat":38.49337,"lng":22.48684,"flags":["been"],"city":"Delphi","country":"Greece"},{"lat":5.398726,"lng":100.28705,"flags":["been"],"city":"Air Itam","country":"Malaysia"},{"lat":36.80684,"lng":10.181412,"flags":["been"],"city":"Tunis","country":"Tunisia"},{"lat":33.92123,"lng":8.13054,"flags":["been"],"city":"Tozeur","country":"Tunisia"},{"lat":35.715397,"lng":51.393932,"flags":["been"],"city":"Tehran","country":"Iran"},{"lat":32.23012,"lng":54.02207,"flags":["been"],"city":"Meybod","country":"Iran"},{"lat":20.634546,"lng":96.56487,"flags":["been"],"city":"Kalaw","country":"Myanmar"},{"lat":43.55325,"lng":7.01325,"flags":["been"],"city":"Cannes","country":"France"},{"lat":37.97698,"lng":23.721302,"flags":["been"],"city":"Athens","country":"Greece"},{"lat":43.78961,"lng":-1.39504,"flags":["been"],"city":"Vieux-Boucau-les-Bains","country":"France"},{"lat":39.966667,"lng":4.083334,"flags":["been"],"city":"Menorca","country":"Spain"},{"lat":43.72769,"lng":7.36177,"flags":["been"],"city":"Eze","country":"France"},{"lat":38.7347,"lng":1.41534,"flags":["been"],"city":"Formentera","country":"Spain"},{"lat":37.94285,"lng":23.64723,"flags":["been"],"city":"Piraeus","country":"Greece"},{"lat":40.00252,"lng":3.841907,"flags":["been"],"city":"Ciutadella","country":"Spain"},{"lat":41.79152,"lng":1.99489,"flags":["been"],"city":"Calders","country":"Spain"},{"lat":41.19506,"lng":9.344079,"flags":["been"],"city":"Costa Serena","country":"Italy"},{"lat":42.51449,"lng":-2.61654,"flags":["been"],"city":"Elciego","country":"Spain"},{"lat":42.87312,"lng":-0.00317,"flags":["been"],"city":"Luz-Saint-Sauveur","country":"France"},{"lat":42.42743,"lng":-3.13588,"flags":["been"],"city":"Villamayor del Rio","country":"Spain"},{"lat":6.488444,"lng":99.304886,"flags":["been"],"city":"Ko Lipe","country":"Thailand"},{"lat":41.953053,"lng":3.206026,"flags":["been"],"city":"Begur","country":"Spain"},{"lat":40.031517,"lng":-6.08985,"flags":["been"],"city":"Plasencia","country":"Spain"},{"lat":42.20036,"lng":2.69811,"flags":["been"],"city":"Besalu","country":"Spain"},{"lat":42.51006,"lng":1.538759,"flags":["been"],"city":"Escaldes-Engordany","country":"Andorra"},{"lat":42.00768,"lng":-1.94886,"flags":["been"],"city":"Cervera del Rio Alhama","country":"Spain"},{"lat":42.17436,"lng":-1.74984,"flags":["been"],"city":"Alfaro","country":"Spain"},{"lat":6.934799,"lng":79.84793,"flags":["been"],"city":"Colombo","country":"Sri Lanka"},{"lat":43.43561,"lng":-3.51347,"flags":["been"],"city":"Escalante","country":"Spain"},{"lat":-25.59852,"lng":-54.57064,"flags":["been"],"city":"Puerto Iguazu","country":"Argentina"},{"lat":42.31335,"lng":-2.208047,"flags":["been"],"city":"Los Molinos de Ocon","country":"Spain"},{"lat":-25.681429,"lng":-54.44691,"flags":["been"],"city":"Iguazu National Park","country":"Argentina"},{"lat":42.44931,"lng":-3.026268,"flags":["been"],"city":"Granon","country":"Spain"},{"lat":28.130705,"lng":-15.438004,"flags":["been"],"city":"Las Palmas de Gran Canaria","country":"Spain"},{"lat":-23.74606,"lng":-65.49892,"flags":["been"],"city":"Purmamarca","country":"Argentina"},{"lat":43.776638,"lng":7.50537,"flags":["been"],"city":"Menton","country":"France"},{"lat":28.97587,"lng":-13.56677,"flags":["been"],"city":"Arrecife","country":"Spain"},{"lat":43.759876,"lng":7.480551,"flags":["been"],"city":"Roquebrune-Cap-Martin","country":"France"},{"lat":28.286709,"lng":-16.53225,"flags":["been"],"city":"Tenerife","country":"Spain"},{"lat":64.7843,"lng":-17.209112,"flags":["been"],"city":"Vatnajokull National Park","country":"Iceland"},{"lat":43.700638,"lng":7.276729,"flags":["been"],"city":"Nice","country":"France"},{"lat":64.02259,"lng":-16.94602,"flags":["been"],"city":"Skaftafell","country":"Iceland"},{"lat":29.015945,"lng":-13.650513,"flags":["been"],"city":"Lanzarote","country":"Spain"},{"lat":42.37008,"lng":-3.479503,"flags":["been"],"city":"Ages","country":"Spain"},{"lat":39.396408,"lng":23.06149,"flags":["been"],"city":"Chania","country":"Greece"},{"lat":28.466293,"lng":-16.258417,"flags":["been"],"city":"Santa Cruz de Tenerife","country":"Spain"},{"lat":44.840595,"lng":1.14314,"flags":["been"],"city":"Beynac-et-Cazenac","country":"France"},{"lat":39.387577,"lng":22.99837,"flags":["been"],"city":"Portaria","country":"Greece"},{"lat":42.46306,"lng":1.9796,"flags":["been"],"city":"Llivia","country":"Spain"},{"lat":52.512543,"lng":5.048402,"flags":["been"],"city":"Edam","country":"The Netherlands"},{"lat":41.99509,"lng":1.52068,"flags":["been"],"city":"Solsona","country":"Spain"},{"lat":39.383465,"lng":23.177925,"flags":["been"],"city":"Tsagkarada","country":"Greece"},{"lat":42.141804,"lng":77.17895,"flags":["been"],"city":"Kaji-Say","country":"Kyrgyzstan"},{"lat":43.73286,"lng":7.41754,"flags":["been"],"city":"Monaco-Ville","country":"Monaco"},{"lat":41.00986,"lng":28.95707,"flags":["been"],"city":"Istanbul","country":"Turkey"},{"lat":43.734375,"lng":7.420487,"flags":["been"],"city":"La Condamine","country":"Monaco"},{"lat":-8.057672,"lng":112.95143,"flags":["been"],"city":"Bromo Tengger Semeru National Park","country":"Indonesia"},{"lat":43.14431,"lng":-4.81218,"flags":["been"],"city":"Fuente De","country":"Spain"},{"lat":43.7383,"lng":7.42696,"flags":["been"],"city":"Monte-Carlo","country":"Monaco"},{"lat":39.71556,"lng":21.61806,"flags":["been"],"city":"Kastraki","country":"Greece"},{"lat":34.016308,"lng":-6.836138,"flags":["been"],"city":"Rabat","country":"Morocco"},{"lat":42.576855,"lng":1.666771,"flags":["been"],"city":"Soldeu","country":"Andorra"},{"lat":33.88268,"lng":-5.53551,"flags":["been"],"city":"Meknes","country":"Morocco"},{"lat":-23.20339,"lng":-65.34727,"flags":["been"],"city":"Humahuaca","country":"Argentina"},{"lat":31.632172,"lng":-8.002955,"flags":["been"],"city":"Marrakech","country":"Morocco"},{"lat":43.730213,"lng":7.414836,"flags":["been"],"city":"Fontvieille","country":"Monaco"},{"lat":37.951508,"lng":27.370535,"flags":["been"],"city":"Selcuk","country":"Turkey"},{"lat":34.026806,"lng":-5.004349,"flags":["been"],"city":"Fes","country":"Morocco"},{"lat":42.635876,"lng":-2.087136,"flags":["been"],"city":"Azqueta","country":"Spain"},{"lat":43.4253,"lng":-1.60798,"flags":["been"],"city":"Guethary","country":"France"},{"lat":45.814022,"lng":10.792601,"flags":["been"],"city":"Limone sul Garda","country":"Italy"},{"lat":43.46154,"lng":-3.80998,"flags":["been"],"city":"Santander","country":"Spain"},{"lat":39.86183,"lng":-4.02524,"flags":["been"],"city":"Toledo","country":"Spain"},{"lat":43.912216,"lng":5.198821,"flags":["been"],"city":"Gordes","country":"France"},{"lat":36.780018,"lng":-6.35776,"flags":["been"],"city":"Sanlucar de Barrameda","country":"Spain"},{"lat":38.98439,"lng":-3.93027,"flags":["been"],"city":"Ciudad Real","country":"Spain"},{"lat":52.191692,"lng":-1.71228,"flags":["been"],"city":"Stratford-upon-Avon","country":"UK"},{"lat":43.70366,"lng":7.30919,"flags":["been"],"city":"Villefranche-sur-Mer","country":"France"},{"lat":57.2721,"lng":-5.734366,"flags":["been"],"city":"Kyleakin","country":"UK"},{"lat":57.41276,"lng":-6.19691,"flags":["been"],"city":"Portree","country":"UK"},{"lat":42.568626,"lng":-0.550855,"flags":["been"],"city":"Jaca","country":"Spain"},{"lat":43.338432,"lng":-1.795055,"flags":["been"],"city":"Irun","country":"Spain"},{"lat":38.91602,"lng":-6.34648,"flags":["been"],"city":"Merida","country":"Spain"},{"lat":44.62619,"lng":26.06922,"flags":["been"],"city":"Saftica","country":"Romania"},{"lat":42.28804,"lng":-4.25677,"flags":["been"],"city":"Itero de la Vega","country":"Spain"},{"lat":43.84202,"lng":10.51535,"flags":["been"],"city":"Lucca","country":"Italy"},{"lat":43.71651,"lng":10.400349,"flags":["been"],"city":"Pisa","country":"Italy"},{"lat":42.56818,"lng":-2.67915,"flags":["been"],"city":"Samaniego","country":"Spain"},{"lat":43.17744,"lng":-2.31129,"flags":["been"],"city":"Azkoitia","country":"Spain"},{"lat":38.115635,"lng":13.362262,"flags":["been"],"city":"Palermo","country":"Italy"},{"lat":37.075428,"lng":15.282613,"flags":["been"],"city":"Syracuse","country":"Italy"},{"lat":0.469317,"lng":35.983643,"flags":["been"],"city":"Marigat","country":"Kenya"},{"lat":42.78508,"lng":-0.52318,"flags":["been"],"city":"Candanchu","country":"Spain"},{"lat":56.703487,"lng":-3.734021,"flags":["been"],"city":"Pitlochry","country":"UK"},{"lat":26.067244,"lng":32.087406,"flags":["been"],"city":"Al Karnak","country":"Egypt"},{"lat":43.325394,"lng":-1.930494,"flags":["been"],"city":"Pasaia","country":"Spain"},{"lat":43.767918,"lng":11.252379,"flags":["been"],"city":"Florence","country":"Italy"},{"lat":57.68243,"lng":-6.338717,"flags":["been"],"city":"Duntulm","country":"UK"},{"lat":8.329534,"lng":80.407036,"flags":["been"],"city":"Anuradhapura","country":"Sri Lanka"},{"lat":7.870203,"lng":80.651184,"flags":["been"],"city":"Dambulla","country":"Sri Lanka"},{"lat":43.46995,"lng":-3.56784,"flags":["been"],"city":"Arnuero","country":"Spain"},{"lat":-19.62114,"lng":14.84373,"flags":["been"],"city":"Kamanjab","country":"Namibia"},{"lat":51.51924,"lng":-0.096654,"flags":["been"],"city":"London","country":"UK"},{"lat":7.293553,"lng":80.63852,"flags":["been"],"city":"Kandy","country":"Sri Lanka"},{"lat":53.406662,"lng":-2.974251,"flags":["been"],"city":"Liverpool","country":"UK"},{"lat":-24.62698,"lng":17.95551,"flags":["been"],"city":"Mariental","country":"Namibia"},{"lat":36.84186,"lng":-2.463083,"flags":["been"],"city":"Almeria","country":"Spain"},{"lat":42.51404,"lng":-2.37247,"flags":["been"],"city":"Viana","country":"Spain"},{"lat":-26.64674,"lng":15.15349,"flags":["been"],"city":"Luderitz","country":"Namibia"},{"lat":36.68565,"lng":-6.135243,"flags":["been"],"city":"Jerez De La Frontera","country":"Spain"},{"lat":42.828796,"lng":-1.590369,"flags":["been"],"city":"Huarte","country":"Spain"},{"lat":39.475178,"lng":-6.372452,"flags":["been"],"city":"Caceres","country":"Spain"},{"lat":7.930785,"lng":81.00833,"flags":["been"],"city":"Polonnaruwa","country":"Sri Lanka"},{"lat":7.95,"lng":80.75,"flags":["been"],"city":"Sigiriya","country":"Sri Lanka"},{"lat":6.023128,"lng":80.79253,"flags":["been"],"city":"Tangalle","country":"Sri Lanka"},{"lat":68.14767,"lng":13.61881,"flags":["been"],"city":"Leknes","country":"Norway"},{"lat":36.718468,"lng":-4.422782,"flags":["been"],"city":"Malaga","country":"Spain"},{"lat":36.508835,"lng":-4.881894,"flags":["been"],"city":"Marbella","country":"Spain"},{"lat":43.12783,"lng":-4.78613,"flags":["been"],"city":"Espinama","country":"Spain"},{"lat":36.42767,"lng":-5.143195,"flags":["been"],"city":"Estepona","country":"Spain"},{"lat":43.82393,"lng":5.30872,"flags":["been"],"city":"Bonnieux","country":"France"},{"lat":37.88069,"lng":-4.779073,"flags":["been"],"city":"Cordoba","country":"Spain"},{"lat":36.597275,"lng":-6.233777,"flags":["been"],"city":"El Puerto de Santa Maria","country":"Spain"},{"lat":57.42034,"lng":-6.53918,"flags":["been"],"city":"Isle of Skye","country":"UK"},{"lat":36.530533,"lng":-6.295243,"flags":["been"],"city":"Cadiz","country":"Spain"},{"lat":59.330135,"lng":18.06151,"flags":["been"],"city":"Stockholm","country":"Sweden"},{"lat":49.96453,"lng":24.89422,"flags":["been"],"city":"Olesko","country":"Ukraine"},{"lat":27.09499,"lng":77.66713,"flags":["been"],"city":"Fatehpur Sikri","country":"India"},{"lat":-8.428904,"lng":115.38831,"flags":["been"],"city":"Tembuku","country":"Indonesia"},{"lat":42.11504,"lng":-1.7881,"flags":["been"],"city":"Corella","country":"Spain"},{"lat":46.579475,"lng":0.348991,"flags":["been"],"city":"Poitiers","country":"France"},{"lat":41.654484,"lng":-0.876858,"flags":["been"],"city":"Zaragoza","country":"Spain"},{"lat":21.857353,"lng":95.98193,"flags":["been"],"city":"Inn Wa","country":"Myanmar"},{"lat":37.176136,"lng":-3.605812,"flags":["been"],"city":"Granada","country":"Spain"},{"lat":41.70438,"lng":-0.9999,"flags":["been"],"city":"Utebo","country":"Spain"},{"lat":42.131332,"lng":-0.407987,"flags":["been"],"city":"Huesca","country":"Spain"},{"lat":37.38911,"lng":-5.984327,"flags":["been"],"city":"Seville","country":"Spain"},{"lat":43.27669,"lng":-2.1248,"flags":["been"],"city":"Orio","country":"Spain"},{"lat":43.309563,"lng":-2.393227,"flags":["been"],"city":"Mutriku","country":"Spain"},{"lat":-7.917196,"lng":112.9595,"flags":["been"],"city":"Ngadisari","country":"Indonesia"},{"lat":22.614262,"lng":-83.70902,"flags":["been"],"city":"Vinales","country":"Cuba"},{"lat":41.09079,"lng":-5.99866,"flags":["been"],"city":"Ledesma","country":"Spain"},{"lat":39.4,"lng":22.98333,"flags":["been"],"city":"Makrinitsa","country":"Greece"},{"lat":52.48399,"lng":-1.888948,"flags":["been"],"city":"Birmingham","country":"UK"},{"lat":68.65983,"lng":27.54037,"flags":["been"],"city":"Ivalo","country":"Finland"},{"lat":5.82808,"lng":102.55401,"flags":["been"],"city":"Kuala Besut","country":"Malaysia"},{"lat":-22.676823,"lng":14.528335,"flags":["been"],"city":"Swakopmund","country":"Namibia"},{"lat":52.28176,"lng":-1.59103,"flags":["been"],"city":"Warwick","country":"UK"},{"lat":6.866545,"lng":81.046486,"flags":["been"],"city":"Ella","country":"Sri Lanka"},{"lat":10.198276,"lng":-84.23855,"flags":["been"],"city":"Poas Volcano National Park","country":"Costa Rica"},{"lat":45.35093,"lng":25.54952,"flags":["been"],"city":"Sinaia","country":"Romania"},{"lat":51.646305,"lng":-1.16597,"flags":["been"],"city":"Dorchester-on-Thames","country":"UK"},{"lat":10.471945,"lng":-84.644615,"flags":["been"],"city":"La Fortuna de San Carlos","country":"Costa Rica"},{"lat":42.5479,"lng":1.83108,"flags":["been"],"city":"Porte-Puymorens","country":"France"},{"lat":46.22124,"lng":24.79456,"flags":["been"],"city":"Sighisoara","country":"Romania"},{"lat":34.26609,"lng":7.865989,"flags":["been"],"city":"Tamerza","country":"Tunisia"},{"lat":42.96618,"lng":-2.1547,"flags":["been"],"city":"Aia","country":"Spain"},{"lat":42.71802,"lng":-0.52518,"flags":["been"],"city":"Canfranc","country":"Spain"},{"lat":42.549435,"lng":-2.822814,"flags":["been"],"city":"Gimileo","country":"Spain"},{"lat":42.31662,"lng":-4.54226,"flags":["been"],"city":"Villalcazar de Sirga","country":"Spain"},{"lat":41.616222,"lng":0.624717,"flags":["been"],"city":"Lleida","country":"Spain"},{"lat":31.73314,"lng":-7.00207,"flags":["been"],"city":"Demnate","country":"Morocco"},{"lat":41.59323,"lng":1.838058,"flags":["been"],"city":"Montserrat","country":"Spain"},{"lat":37.01941,"lng":-4.559184,"flags":["been"],"city":"Antequera","country":"Spain"},{"lat":39.16883,"lng":-0.258733,"flags":["been"],"city":"Cullera","country":"Spain"},{"lat":37.99312,"lng":-3.4684,"flags":["been"],"city":"Baeza","country":"Spain"},{"lat":37.91316,"lng":-3.00282,"flags":["been"],"city":"Cazorla","country":"Spain"},{"lat":42.9185,"lng":-1.82825,"flags":["been"],"city":"Irurtzun","country":"Spain"},{"lat":28.86533,"lng":-13.831648,"flags":["been"],"city":"Playa Blanca","country":"Spain"},{"lat":5.953496,"lng":80.62437,"flags":["been"],"city":"Thalalla","country":"Sri Lanka"},{"lat":36.014534,"lng":-5.604243,"flags":["been"],"city":"Tarifa","country":"Spain"},{"lat":10.462387,"lng":-84.70276,"flags":["been"],"city":"Arenal Volcano National Park","country":"Costa Rica"},{"lat":42.012955,"lng":-4.532251,"flags":["been"],"city":"Palencia","country":"Spain"},{"lat":42.46592,"lng":-2.45194,"flags":["been"],"city":"Logrono","country":"Spain"},{"lat":39.18333,"lng":23.21667,"flags":["been"],"city":"Chorto","country":"Greece"},{"lat":60.16798,"lng":24.940203,"flags":["been"],"city":"Helsinki","country":"Finland"},{"lat":40.41471,"lng":-3.700708,"flags":["been"],"city":"Madrid","country":"Spain"},{"lat":43.44613,"lng":-3.57035,"flags":["been"],"city":"San Mames de Meruelo","country":"Spain"},{"lat":-8.559633,"lng":115.17545,"flags":["been"],"city":"Mengwi","country":"Indonesia"},{"lat":-0.29117,"lng":36.06961,"flags":["been"],"city":"Nakuru","country":"Kenya"},{"lat":43.794765,"lng":7.563359,"flags":["been"],"city":"Latte","country":"Italy"},{"lat":42.83114,"lng":-1.60985,"flags":["been"],"city":"Villava","country":"Spain"},{"lat":42.57763,"lng":-2.84991,"flags":["been"],"city":"Haro","country":"Spain"},{"lat":36.14478,"lng":-5.35291,"flags":["been"],"city":"Gibraltar","country":"Europe"},{"lat":40.65787,"lng":-4.69228,"flags":["been"],"city":"Avila","country":"Spain"},{"lat":44.82641,"lng":1.18074,"flags":["been"],"city":"La Roque-Gageac","country":"France"},{"lat":10.401463,"lng":-85.805626,"flags":["been"],"city":"Playa Conchal","country":"Costa Rica"},{"lat":42.26217,"lng":2.962293,"flags":["been"],"city":"Figueres","country":"Spain"},{"lat":46.80452,"lng":7.15327,"flags":["been"],"city":"Fribourg","country":"Switzerland"},{"lat":38.65157,"lng":0.013335,"flags":["been"],"city":"Calpe","country":"Spain"},{"lat":38.982178,"lng":1.302077,"flags":["been"],"city":"Sant Antoni de Portmany","country":"Spain"},{"lat":38.544544,"lng":-0.132022,"flags":["been"],"city":"Benidorm","country":"Spain"},{"lat":20.250498,"lng":105.97461,"flags":["been"],"city":"Ninh Binh","country":"Vietnam"},{"lat":39.473854,"lng":-0.377154,"flags":["been"],"city":"Valencia","country":"Spain"},{"lat":29.541817,"lng":35.015697,"flags":["been"],"city":"Aqaba","country":"Jordan"},{"lat":42.56821,"lng":1.600092,"flags":["been"],"city":"Canillo","country":"Andorra"},{"lat":42.813114,"lng":-1.645134,"flags":["been"],"city":"Pamplona","country":"Spain"},{"lat":48.63308,"lng":-1.509604,"flags":["been"],"city":"Mont-Saint-Michel","country":"France"},{"lat":43.163467,"lng":-1.239147,"flags":["been"],"city":"Saint-Jean-Pied-de-Port","country":"France"},{"lat":10.740868,"lng":-85.314964,"flags":["been"],"city":"Rincon de La Vieja","country":"Costa Rica"},{"lat":43.31667,"lng":-2.68333,"flags":["been"],"city":"Gernika-Lumo","country":"Spain"},{"lat":42.673374,"lng":-2.029369,"flags":["been"],"city":"Estella","country":"Spain"},{"lat":4.8919,"lng":114.94044,"flags":["been"],"city":"Bandar Seri Begawan","country":"Brunei Darussalam"},{"lat":42.56827,"lng":-2.19224,"flags":["been"],"city":"Los Arcos","country":"Spain"},{"lat":42.43954,"lng":-2.95453,"flags":["been"],"city":"Santo Domingo de la Calzada","country":"Spain"},{"lat":64.792595,"lng":-14.007229,"flags":["been"],"city":"Breiddalsvik","country":"Iceland"},{"lat":43.00882,"lng":-1.31999,"flags":["been"],"city":"Orreaga-Roncesvalles","country":"Spain"},{"lat":42.97031,"lng":-1.65316,"flags":["been"],"city":"Urrizola Galain","country":"Spain"},{"lat":42.93057,"lng":-1.504419,"flags":["been"],"city":"Zubiri","country":"Spain"},{"lat":46.58188,"lng":7.08006,"flags":["been"],"city":"Gruyeres","country":"Switzerland"},{"lat":37.688038,"lng":15.10353,"flags":["been"],"city":"Zafferana Etnea","country":"Italy"},{"lat":42.67139,"lng":-1.81297,"flags":["been"],"city":"Puente la Reina","country":"Spain"},{"lat":37.66853,"lng":-4.93751,"flags":["been"],"city":"La Carlota","country":"Spain"},{"lat":42.41884,"lng":-3.19125,"flags":["been"],"city":"Belorado","country":"Spain"},{"lat":-26.82774,"lng":-65.21046,"flags":["been"],"city":"San Miguel de Tucuman","country":"Argentina"},{"lat":52.49506,"lng":-2.997036,"flags":["want"],"city":"Bishops Castle","country":"UK"},{"lat":42.44186,"lng":3.16546,"flags":["been"],"city":"Cerbere","country":"France"},{"lat":-24.78866,"lng":-65.41018,"flags":["been"],"city":"Salta","country":"Argentina"},{"lat":51.784832,"lng":21.18885,"flags":["been"],"city":"Warka","country":"Poland"},{"lat":46.49355,"lng":9.90199,"flags":["been"],"city":"Pontresina","country":"Switzerland"},{"lat":42.31273,"lng":-4.04563,"flags":["been"],"city":"Hontanas","country":"Spain"},{"lat":43.3699,"lng":-1.79464,"flags":["been"],"city":"Hondarribia","country":"Spain"},{"lat":35.91327,"lng":14.48836,"flags":["been"],"city":"Saint Julian's","country":"Malta"},{"lat":40.05622,"lng":4.13169,"flags":["been"],"city":"Fornells","country":"Spain"},{"lat":42.3404,"lng":-4.60078,"flags":["been"],"city":"Carrion de los Condes","country":"Spain"},{"lat":42.874107,"lng":74.571075,"flags":["been"],"city":"Bishkek","country":"Kyrgyzstan"},{"lat":42.37114,"lng":-5.02613,"flags":["been"],"city":"Sahagun","country":"Spain"},{"lat":42.26786,"lng":-4.40502,"flags":["been"],"city":"Fromista","country":"Spain"},{"lat":40.989853,"lng":-3.638486,"flags":["been"],"city":"Buitrago de Lozoya","country":"Spain"},{"lat":42.375835,"lng":-3.436635,"flags":["been"],"city":"San Juan De Ortega","country":"Spain"},{"lat":42.38447,"lng":-3.309871,"flags":["been"],"city":"Villafranca Montes de Oca","country":"Spain"},{"lat":42.537094,"lng":1.586069,"flags":["been"],"city":"Encamp","country":"Andorra"},{"lat":42.14774,"lng":-2.26934,"flags":["been"],"city":"Enciso","country":"Spain"},{"lat":34.01157,"lng":-118.49229,"flags":["been"],"city":"Santa Monica","country":"USA"},{"lat":-42.57135,"lng":-64.28209,"flags":["been"],"city":"Puerto Piramides","country":"Argentina"},{"lat":41.7254,"lng":1.82389,"flags":["been"],"city":"Manresa","country":"Spain"},{"lat":39.40532,"lng":23.177744,"flags":["been"],"city":"Ntamouchari","country":"Greece"},{"lat":23.163464,"lng":-82.32556,"flags":["been"],"city":"Cojimar","country":"Cuba"},{"lat":63.52864,"lng":-19.50108,"flags":["been"],"city":"Skogar","country":"Iceland"},{"lat":42.55566,"lng":1.534306,"flags":["been"],"city":"Ordino","country":"Andorra"},{"lat":13.745595,"lng":100.53466,"flags":["been"],"city":"Bangkok","country":"Thailand"},{"lat":20.964325,"lng":107.03013,"flags":["been"],"city":"Halong Bay","country":"Vietnam"},{"lat":-41.13738,"lng":-71.29987,"flags":["been"],"city":"San Carlos de Bariloche","country":"Argentina"},{"lat":7.918059,"lng":98.346466,"flags":["been"],"city":"Phuket","country":"Thailand"},{"lat":3.01511,"lng":101.6992,"flags":["been"],"city":"Sri Kembangan","country":"Malaysia"},{"lat":42.545494,"lng":1.514744,"flags":["been"],"city":"La Massana","country":"Andorra"},{"lat":-0.42782,"lng":36.94836,"flags":["been"],"city":"Nyeri","country":"Kenya"},{"lat":42.462467,"lng":76.189964,"flags":["been"],"city":"Balykchy","country":"Kyrgyzstan"},{"lat":10.82293,"lng":106.62975,"flags":["been"],"city":"Ho Chi Minh City","country":"Vietnam"},{"lat":43.46211,"lng":-3.58877,"flags":["been"],"city":"San Miguel De Meruelo","country":"Spain"},{"lat":40.13922,"lng":-3.42649,"flags":["been"],"city":"Chinchon","country":"Spain"},{"lat":43.725334,"lng":4.708815,"flags":["been"],"city":"Fontvieille","country":"France"},{"lat":21.033333,"lng":105.84962,"flags":["been"],"city":"Hanoi","country":"Vietnam"},{"lat":-17.533333,"lng":-149.83333,"flags":["been"],"city":"Moorea","country":"French Polynesia"},{"lat":42.56702,"lng":-5.495793,"flags":["been"],"city":"Arcahueja","country":"Spain"},{"lat":41.42704,"lng":1.784497,"flags":["been"],"city":"Sant Sadurni d'Anoia","country":"Spain"},{"lat":42.308357,"lng":3.010629,"flags":["been"],"city":"Peralada","country":"Spain"},{"lat":-50.340836,"lng":-72.26978,"flags":["been"],"city":"El Calafate","country":"Argentina"},{"lat":37.31333,"lng":13.579147,"flags":["been"],"city":"Agrigento","country":"Italy"},{"lat":24.47564,"lng":32.94306,"flags":["been"],"city":"Kom Ombo","country":"Egypt"},{"lat":42.4973,"lng":1.50253,"flags":["been"],"city":"Santa Coloma","country":"Andorra"},{"lat":9.930845,"lng":-84.07983,"flags":["been"],"city":"San Jose","country":"Costa Rica"},{"lat":49.00474,"lng":14.7701,"flags":["been"],"city":"Trebon","country":"Czech Republic"},{"lat":42.17332,"lng":-1.69808,"flags":["been"],"city":"Castejon","country":"Spain"},{"lat":42.52761,"lng":-1.67435,"flags":["been"],"city":"Tafalla","country":"Spain"},{"lat":36.49652,"lng":-4.775239,"flags":["been"],"city":"Elviria","country":"Spain"},{"lat":42.4329,"lng":-2.56273,"flags":["been"],"city":"Navarrete","country":"Spain"},{"lat":49.98479,"lng":20.05874,"flags":["been"],"city":"Wieliczka","country":"Poland"},{"lat":50.682144,"lng":21.749601,"flags":["been"],"city":"Sandomierz","country":"Poland"},{"lat":42.98845,"lng":-1.33643,"flags":["been"],"city":"Auritz-Burguete","country":"Spain"},{"lat":43.76316,"lng":5.363359,"flags":["been"],"city":"Lourmarin","country":"France"},{"lat":41.82456,"lng":-1.68703,"flags":["been"],"city":"Vera de Moncayo","country":"Spain"},{"lat":56.681835,"lng":-5.106926,"flags":["been"],"city":"Glencoe Village","country":"UK"},{"lat":34.80349,"lng":48.51095,"flags":["been"],"city":"Hamadan","country":"Iran"},{"lat":42.34909,"lng":-3.817,"flags":["been"],"city":"Tardajos","country":"Spain"},{"lat":36.05529,"lng":14.20373,"flags":["been"],"city":"San Lawrenz","country":"Malta"},{"lat":42.54827,"lng":-2.91225,"flags":["been"],"city":"Casalarreina","country":"Spain"},{"lat":52.53669,"lng":-2.800484,"flags":["been"],"city":"Church Stretton","country":"UK"},{"lat":50.06046,"lng":19.9324,"flags":["been"],"city":"Krakow","country":"Poland"},{"lat":35.95639,"lng":14.36222,"flags":["been"],"city":"Mellieha","country":"Malta"},{"lat":54.64236,"lng":24.93258,"flags":["been"],"city":"Trakai","country":"Lithuania"},{"lat":42.967205,"lng":-1.417807,"flags":["been"],"city":"Viscarret-Guerendiain","country":"Spain"},{"lat":38.528767,"lng":22.379284,"flags":["been"],"city":"Amfissa","country":"Greece"},{"lat":42.28195,"lng":-1.27069,"flags":["been"],"city":"Sadaba","country":"Spain"},{"lat":43.319355,"lng":11.326818,"flags":["been"],"city":"Siena","country":"Italy"},{"lat":29.826199,"lng":-5.723734,"flags":["been"],"city":"M'Hamid","country":"Morocco"},{"lat":42.4679,"lng":1.492148,"flags":["been"],"city":"Sant Julia de Loria","country":"Andorra"},{"lat":20.445724,"lng":96.90262,"flags":["been"],"city":"Innpawkon","country":"Myanmar"},{"lat":41.90455,"lng":-1.72284,"flags":["been"],"city":"Tarazona","country":"Spain"},{"lat":42.550518,"lng":-2.582694,"flags":["been"],"city":"Laguardia","country":"Spain"},{"lat":39.38153,"lng":-0.328364,"flags":["been"],"city":"El Saler","country":"Spain"},{"lat":4.597892,"lng":102.43203,"flags":["been"],"city":"Taman Negara National Park","country":"Malaysia"},{"lat":-24.725792,"lng":15.342348,"flags":["been"],"city":"Sossusvlei","country":"Namibia"},{"lat":39.3283,"lng":23.15,"flags":["been"],"city":"Milies","country":"Greece"},{"lat":43.327736,"lng":-1.927225,"flags":["been"],"city":"Pasai San Pedro","country":"Spain"},{"lat":43.65849,"lng":-1.4285,"flags":["been"],"city":"Soorts-Hossegor","country":"France"},{"lat":38.26952,"lng":-0.711465,"flags":["been"],"city":"Elche","country":"Spain"},{"lat":49.29524,"lng":19.95312,"flags":["been"],"city":"Zakopane","country":"Poland"},{"lat":43.564503,"lng":-1.448418,"flags":["been"],"city":"Ondres","country":"France"},{"lat":-20.10789,"lng":16.15439,"flags":["been"],"city":"Outjo","country":"Namibia"},{"lat":50.901226,"lng":15.740127,"flags":["been"],"city":"Jelenia Gora","country":"Poland"},{"lat":42.30584,"lng":-1.96206,"flags":["been"],"city":"Calahorra","country":"Spain"},{"lat":36.03816,"lng":14.29684,"flags":["been"],"city":"Nadur","country":"Malta"},{"lat":43.312275,"lng":-2.026334,"flags":["been"],"city":"Igueldo","country":"Spain"},{"lat":41.96613,"lng":74.92323,"flags":["been"],"city":"Dzhangyaryk","country":"Kyrgyzstan"},{"lat":69.21667,"lng":19.56667,"flags":["been"],"city":"Nordkjosbotn","country":"Norway"},{"lat":41.06392,"lng":72.36112,"flags":["been"],"city":"Kochkor-Ata","country":"Kyrgyzstan"},{"lat":1.284477,"lng":103.84318,"flags":["been"],"city":"Chinatown","country":"Singapore"},{"lat":-15.65611,"lng":-71.60533,"flags":["been"],"city":"Chivay","country":"Peru"},{"lat":42.24875,"lng":-0.6833,"flags":["been"],"city":"Fontellas","country":"Spain"},{"lat":7.210556,"lng":79.83719,"flags":["been"],"city":"Negombo","country":"Sri Lanka"},{"lat":46.994476,"lng":11.500965,"flags":["been"],"city":"Brennero","country":"Italy"},{"lat":6.034352,"lng":80.21621,"flags":["been"],"city":"Galle","country":"Sri Lanka"},{"lat":4.472036,"lng":101.37731,"flags":["been"],"city":"Tanah Rata","country":"Malaysia"},{"lat":42.686817,"lng":-2.948924,"flags":["been"],"city":"Miranda de Ebro","country":"Spain"},{"lat":10.309,"lng":-85.83412,"flags":["been"],"city":"Tamarindo","country":"Costa Rica"},{"lat":16.794947,"lng":96.16125,"flags":["been"],"city":"Yangon (Rangoon)","country":"Myanmar"},{"lat":43.24626,"lng":-2.14431,"flags":["been"],"city":"Olaskoegia","country":"Spain"},{"lat":43.64004,"lng":-1.43079,"flags":["been"],"city":"Capbreton","country":"France"},{"lat":41.51506,"lng":2.12718,"flags":["been"],"city":"Barbera del Valles","country":"Spain"},{"lat":42.56321,"lng":-2.76072,"flags":["been"],"city":"San Vicente de la Sonsierra","country":"Spain"},{"lat":-36.87216,"lng":174.76529,"flags":["been"],"city":"Auckland","country":"New Zealand"},{"lat":67.88983,"lng":13.02221,"flags":["been"],"city":"Sorvagen","country":"Norway"},{"lat":43.415096,"lng":-5.790151,"flags":["been"],"city":"La Fresneda","country":"Spain"},{"lat":3.09201,"lng":101.49428,"flags":["been"],"city":"Shah Alam","country":"Malaysia"},{"lat":42.9137,"lng":-1.05347,"flags":["been"],"city":"Izalzu","country":"Spain"},{"lat":3.040402,"lng":101.58413,"flags":["been"],"city":"Subang Jaya","country":"Malaysia"},{"lat":2.69093,"lng":101.75114,"flags":["been"],"city":"Sepang","country":"Malaysia"},{"lat":43.30311,"lng":-2.20496,"flags":["been"],"city":"Getaria","country":"Spain"},{"lat":3.10363,"lng":101.64778,"flags":["been"],"city":"Petaling Jaya","country":"Malaysia"},{"lat":42.99432,"lng":-1.67413,"flags":["been"],"city":"Iraizotz","country":"Spain"},{"lat":30.69206,"lng":-6.44705,"flags":["been"],"city":"Agdz","country":"Morocco"},{"lat":39.675842,"lng":-0.268622,"flags":["been"],"city":"Puerto de Sagunto","country":"Spain"},{"lat":43.59291,"lng":-1.42602,"flags":["been"],"city":"Labenne","country":"France"},{"lat":1.716665,"lng":110.46667,"flags":["been"],"city":"Bako National Park","country":"Malaysia"},{"lat":10.578692,"lng":-83.5195,"flags":["been"],"city":"Tortuguero","country":"Costa Rica"},{"lat":21.19643,"lng":94.90679,"flags":["been"],"city":"Nyaungu","country":"Myanmar"},{"lat":31.90544,"lng":54.35115,"flags":["been"],"city":"Yazd","country":"Iran"},{"lat":43.3088,"lng":-4.834411,"flags":["been"],"city":"Poo de Cabrales","country":"Spain"},{"lat":40.0525,"lng":3.8851,"flags":["been"],"city":"Cala Morell","country":"Spain"},{"lat":-8.285415,"lng":115.1609,"flags":["been"],"city":"Bedugul","country":"Indonesia"},{"lat":5.330257,"lng":103.13776,"flags":["been"],"city":"Kuala Terengganu","country":"Malaysia"},{"lat":10.302315,"lng":-84.79579,"flags":["been"],"city":"Monteverde Cloud Forest Reserve","country":"Costa Rica"},{"lat":42.58786,"lng":-2.96338,"flags":["been"],"city":"Sajazarra","country":"Spain"},{"lat":42.367676,"lng":-3.65308,"flags":["been"],"city":"Villafria de Burgos","country":"Spain"},{"lat":43.34885,"lng":-3.00945,"flags":["been"],"city":"Getxo","country":"Spain"},{"lat":42.22684,"lng":-2.09999,"flags":["been"],"city":"Arnedo","country":"Spain"},{"lat":45.88481,"lng":11.04317,"flags":["been"],"city":"Rovereto","country":"Italy"},{"lat":45.456104,"lng":12.352862,"flags":["been"],"city":"Murano","country":"Italy"},{"lat":29.536425,"lng":35.408394,"flags":["been"],"city":"Wadi Rum","country":"Jordan"},{"lat":5.987912,"lng":80.32691,"flags":["been"],"city":"Koggala","country":"Sri Lanka"},{"lat":30.26,"lng":-5.66,"flags":["been"],"city":"Tamgrout","country":"Morocco"},{"lat":25.335337,"lng":83.01435,"flags":["been"],"city":"Varanasi","country":"India"},{"lat":42.60188,"lng":-2.83115,"flags":["been"],"city":"Brinas","country":"Spain"},{"lat":43.47925,"lng":-3.52969,"flags":["been"],"city":"Noja","country":"Spain"},{"lat":27.160555,"lng":78.054596,"flags":["been"],"city":"Agra","country":"India"},{"lat":9.977923,"lng":-84.82957,"flags":["been"],"city":"Puntarenas","country":"Costa Rica"},{"lat":65.66176,"lng":-20.28959,"flags":["been"],"city":"Blonduos","country":"Iceland"},{"lat":57.48465,"lng":-4.070835,"flags":["been"],"city":"Culloden Moor","country":"UK"},{"lat":42.346283,"lng":-3.779603,"flags":["been"],"city":"Villalbilla de Burgos","country":"Spain"},{"lat":42.974934,"lng":-1.358467,"flags":["been"],"city":"Espinal","country":"Spain"},{"lat":39.873955,"lng":4.135472,"flags":["been"],"city":"Cala'n Porter","country":"Spain"},{"lat":1.553258,"lng":110.35973,"flags":["been"],"city":"Kuching","country":"Malaysia"},{"lat":5.979383,"lng":116.07349,"flags":["been"],"city":"Kota Kinabalu","country":"Malaysia"},{"lat":42.62069,"lng":-1.20327,"flags":["been"],"city":"Yesa","country":"Spain"},{"lat":43.45293,"lng":-4.976865,"flags":["been"],"city":"Llames de Pria","country":"Spain"},{"lat":5.411938,"lng":100.32664,"flags":["been"],"city":"George Town","country":"Malaysia"},{"lat":-8.728844,"lng":115.17589,"flags":["been"],"city":"Kuta","country":"Indonesia"},{"lat":-8.653394,"lng":115.21616,"flags":["been"],"city":"Denpasar","country":"Indonesia"}]